[
  {
    "coordinates": [
      -4.11319397243893,
      40.5438089496127
    ],
    "CODIGOESTACION": 12982,
    "DENOMINACION": "CTRA.M533-URB.EL ALCOR",
    "LINEAS": [
      "666",
      "669A"
    ]
  },
  {
    "coordinates": [
      -3.79525906873373,
      40.2775090641509
    ],
    "CODIGOESTACION": 12867,
    "DENOMINACION": "FUENTESAUCO-FONSECA",
    "LINEAS": [
      ""
    ]
  },
  {
    "coordinates": [
      -3.79545478656027,
      40.2777493047634
    ],
    "CODIGOESTACION": 12868,
    "DENOMINACION": "FUENTESAUCO-FONSECA",
    "LINEAS": [
      ""
    ]
  },
  {
    "coordinates": [
      -3.79313104310736,
      40.2758338316594
    ],
    "CODIGOESTACION": 12869,
    "DENOMINACION": "FUENTEVAQUEROS-HONTANAR",
    "LINEAS": [
      ""
    ]
  },
  {
    "coordinates": [
      -3.79201559485249,
      40.2770126657255
    ],
    "CODIGOESTACION": 12872,
    "DENOMINACION": "NORIA-ERAS",
    "LINEAS": [
      ""
    ]
  },
  {
    "coordinates": [
      -3.79196718409583,
      40.2768958771342
    ],
    "CODIGOESTACION": 12873,
    "DENOMINACION": "NORIA-HUMANES",
    "LINEAS": [
      ""
    ]
  },
  {
    "coordinates": [
      -3.75913340096777,
      40.2748960024002
    ],
    "CODIGOESTACION": 12839,
    "DENOMINACION": "CTRA.M506-AV.CANTUEÑA",
    "LINEAS": [
      "471"
    ]
  },
  {
    "coordinates": [
      -3.76112406583375,
      40.274751215201
    ],
    "CODIGOESTACION": 12840,
    "DENOMINACION": "CTRA.M506-AV.CANTUEÑA",
    "LINEAS": [
      "471"
    ]
  },
  {
    "coordinates": [
      -3.71579315813843,
      40.3124948894083
    ],
    "CODIGOESTACION": 11322,
    "DENOMINACION": "AV.ARAGÓN-ALBACETE",
    "LINEAS": [
      "442"
    ]
  },
  {
    "coordinates": [
      -3.86748805539313,
      40.4631225187459
    ],
    "CODIGOESTACION": 8794,
    "DENOMINACION": "CTRA.POZUELO-URB.EL PAULAR",
    "LINEAS": [
      "561",
      "561A",
      "561B",
      "N906"
    ]
  },
  {
    "coordinates": [
      -3.7147921615791,
      40.330571510272
    ],
    "CODIGOESTACION": 11324,
    "DENOMINACION": "AV.REAL DE PINTO-LAGUNA DALGA",
    "LINEAS": [
      "448"
    ]
  },
  {
    "coordinates": [
      -3.84352039992017,
      40.4035879333842
    ],
    "CODIGOESTACION": 8754,
    "DENOMINACION": "PºSAUCES-PºOLMOS",
    "LINEAS": [
      "566"
    ]
  },
  {
    "coordinates": [
      -3.7150602796624,
      40.330596077024
    ],
    "CODIGOESTACION": 11323,
    "DENOMINACION": "AV.REAL DE PINTO-LA ACEBEDA",
    "LINEAS": [
      "448"
    ]
  },
  {
    "coordinates": [
      -3.73739592610041,
      40.327754188516
    ],
    "CODIGOESTACION": 11401,
    "DENOMINACION": "EDUARDO TORROJA-COLEGIO",
    "LINEAS": [
      "488"
    ]
  },
  {
    "coordinates": [
      -3.71124837984169,
      40.3121816452846
    ],
    "CODIGOESTACION": 11412,
    "DENOMINACION": "AV.CIUDADES-PARQUE",
    "LINEAS": [
      "442",
      "N805"
    ]
  },
  {
    "coordinates": [
      -3.66586007668101,
      40.3050134978092
    ],
    "CODIGOESTACION": 11488,
    "DENOMINACION": "CºTORRE-LAGUNAS DE PERALES",
    "LINEAS": [
      ""
    ]
  },
  {
    "coordinates": [
      -3.66600700744751,
      40.3050407238895
    ],
    "CODIGOESTACION": 11487,
    "DENOMINACION": "CºTORRE-LAGUNAS DE PERALES",
    "LINEAS": [
      ""
    ]
  },
  {
    "coordinates": [
      -3.72613251261662,
      40.3234016786327
    ],
    "CODIGOESTACION": 11715,
    "DENOMINACION": "MADRID-EST.LAS MARGARITAS UNIVERSIDAD",
    "LINEAS": [
      "443"
    ]
  },
  {
    "coordinates": [
      -3.72252285500232,
      40.3258864202044
    ],
    "CODIGOESTACION": 11719,
    "DENOMINACION": "AV.MARÍA ZAMBRANO-GABRIELA MISTRAL",
    "LINEAS": [
      "443"
    ]
  },
  {
    "coordinates": [
      -3.71939896605894,
      40.325038766884
    ],
    "CODIGOESTACION": 12588,
    "DENOMINACION": "PZA.FUENTE DE GOYA-EST.LOS ESPARTALES",
    "LINEAS": [
      "N805",
      "N807"
    ]
  },
  {
    "coordinates": [
      -3.71559170434598,
      40.3226641577341
    ],
    "CODIGOESTACION": 11723,
    "DENOMINACION": "AV.RIGOBERTA MENCHÚ-CENTRO DE SALUD",
    "LINEAS": [
      "448",
      "488",
      "N805"
    ]
  },
  {
    "coordinates": [
      -3.13147992113285,
      40.0184154642061
    ],
    "CODIGOESTACION": 18813,
    "DENOMINACION": "ZARZA DE TAJO-AYUNTAMIENTO",
    "LINEAS": [
      "353"
    ]
  },
  {
    "coordinates": [
      -3.72494233421395,
      40.3049880294521
    ],
    "CODIGOESTACION": 8250,
    "DENOMINACION": "AV JUAN DE LA CIERVA-HOSPITAL DE SAN JOSE",
    "LINEAS": [
      "428"
    ]
  },
  {
    "coordinates": [
      -3.13002358193758,
      40.0166753509203
    ],
    "CODIGOESTACION": 18814,
    "DENOMINACION": "ZARZA DE TAJO-ISABEL I DE CASTILLA",
    "LINEAS": [
      "353"
    ]
  },
  {
    "coordinates": [
      -2.91928169375944,
      40.1226854156994
    ],
    "CODIGOESTACION": 18815,
    "DENOMINACION": "BARAJAS DE MELO-PARQUE DE LA ISLA",
    "LINEAS": [
      "351"
    ]
  },
  {
    "coordinates": [
      -2.91676168620117,
      40.1227909147885
    ],
    "CODIGOESTACION": 18816,
    "DENOMINACION": "BARAJAS DE MELO-PZA.CONSTITUCION",
    "LINEAS": [
      "351"
    ]
  },
  {
    "coordinates": [
      -2.85257369777188,
      40.1557707966922
    ],
    "CODIGOESTACION": 18817,
    "DENOMINACION": "SACEDA TRASIERRA-PRADO",
    "LINEAS": [
      "351"
    ]
  },
  {
    "coordinates": [
      -3.74419166326473,
      40.2976637061159
    ],
    "CODIGOESTACION": 8257,
    "DENOMINACION": "AV.JUAN CARLOS I-C.C.GETAFE 3",
    "LINEAS": [
      "441",
      "444",
      "N801",
      "N807"
    ]
  },
  {
    "coordinates": [
      -3.86773241321001,
      40.4483734350874
    ],
    "CODIGOESTACION": 18854,
    "DENOMINACION": "VELÁZQUEZ-JOAQUÍN TURINA",
    "LINEAS": [
      "567",
      "626",
      "655"
    ]
  },
  {
    "coordinates": [
      -2.94926347343727,
      40.1635177296048
    ],
    "CODIGOESTACION": 18819,
    "DENOMINACION": "LEGANIEL-CTRA.BARAJAS DE MELO",
    "LINEAS": [
      "351"
    ]
  },
  {
    "coordinates": [
      -3.59980618981631,
      40.0278999969601
    ],
    "CODIGOESTACION": 9628,
    "DENOMINACION": "AV.PLAZA DE TOROS-FOSO",
    "LINEAS": [
      ""
    ]
  },
  {
    "coordinates": [
      -3.5982624433722,
      40.0308842385381
    ],
    "CODIGOESTACION": 9630,
    "DENOMINACION": "FOSO-SAN PASCUAL",
    "LINEAS": [
      ""
    ]
  },
  {
    "coordinates": [
      -3.59608906355745,
      40.0289493557665
    ],
    "CODIGOESTACION": 9632,
    "DENOMINACION": "CºNOBLEJAS-PARQUE POZO DE LA NIEVE",
    "LINEAS": [
      ""
    ]
  },
  {
    "coordinates": [
      -3.59597273158889,
      40.029049061438
    ],
    "CODIGOESTACION": 9633,
    "DENOMINACION": "CºNOBLEJAS-PARQUE POZO DE LA NIEVE",
    "LINEAS": [
      ""
    ]
  },
  {
    "coordinates": [
      -3.59390949976744,
      40.0273030168046
    ],
    "CODIGOESTACION": 9634,
    "DENOMINACION": "NUEVA-PILAR",
    "LINEAS": [
      ""
    ]
  },
  {
    "coordinates": [
      -2.90868117590285,
      40.1833725723387
    ],
    "CODIGOESTACION": 18820,
    "DENOMINACION": "ILLANA-PARRA",
    "LINEAS": [
      "351"
    ]
  },
  {
    "coordinates": [
      -3.59672423486674,
      40.0354675099227
    ],
    "CODIGOESTACION": 9590,
    "DENOMINACION": "MORERAS-LA BARRACA DE FEDERICO GªLORCA",
    "LINEAS": [
      "430"
    ]
  },
  {
    "coordinates": [
      -3.59475083717856,
      40.0354522098436
    ],
    "CODIGOESTACION": 9591,
    "DENOMINACION": "MORERAS-ANCHA",
    "LINEAS": [
      "423",
      "430"
    ]
  },
  {
    "coordinates": [
      -3.59472622096077,
      40.0353171903463
    ],
    "CODIGOESTACION": 9592,
    "DENOMINACION": "MORERAS-ANCHA",
    "LINEAS": [
      "430"
    ]
  },
  {
    "coordinates": [
      -3.5927089538017,
      40.035174368651
    ],
    "CODIGOESTACION": 9593,
    "DENOMINACION": "MORERAS-PRIMERO DE MAYO",
    "LINEAS": [
      "430"
    ]
  },
  {
    "coordinates": [
      -3.59234908787587,
      40.0369330921826
    ],
    "CODIGOESTACION": 9595,
    "DENOMINACION": "PZA.DOCTOR GLEZ.BUENO-RESIDENCIA",
    "LINEAS": [
      ""
    ]
  },
  {
    "coordinates": [
      -3.58926074217411,
      40.0349272480479
    ],
    "CODIGOESTACION": 9597,
    "DENOMINACION": "MORERAS-COLEGIO",
    "LINEAS": [
      "430"
    ]
  },
  {
    "coordinates": [
      -3.03959274887079,
      40.1736257479473
    ],
    "CODIGOESTACION": 18821,
    "DENOMINACION": "COL.SAN JOAQUIN-URB.EL CUARTILLEJO",
    "LINEAS": [
      "351"
    ]
  },
  {
    "coordinates": [
      -3.0436774662743,
      40.1791704296606
    ],
    "CODIGOESTACION": 18822,
    "DENOMINACION": "COL.SAN JOAQUIN-URB.SOTO",
    "LINEAS": [
      "351"
    ]
  },
  {
    "coordinates": [
      -3.80250083089473,
      40.408695339202
    ],
    "CODIGOESTACION": 12441,
    "DENOMINACION": "MISTRAL-PºHONTANAR",
    "LINEAS": [
      "562",
      "564",
      "658",
      "N902"
    ]
  },
  {
    "coordinates": [
      -3.99191993440407,
      40.2331276157507
    ],
    "CODIGOESTACION": 7392,
    "DENOMINACION": "MÁRTIRES-ESPINO",
    "LINEAS": [
      "528",
      "529",
      "539",
      "529A"
    ]
  },
  {
    "coordinates": [
      -3.54067058581454,
      40.8254782165239
    ],
    "CODIGOESTACION": 12445,
    "DENOMINACION": "SAN FRANCISCO-ESCUELAS",
    "LINEAS": [
      "197",
      "913",
      "197C"
    ]
  },
  {
    "coordinates": [
      -3.60082367475323,
      40.5712907414897
    ],
    "CODIGOESTACION": 12448,
    "DENOMINACION": "GRAMÍNEAS-LA GRANJILLA",
    "LINEAS": [
      "161"
    ]
  },
  {
    "coordinates": [
      -3.60546949251075,
      40.5729241677548
    ],
    "CODIGOESTACION": 12449,
    "DENOMINACION": "GRAMÍNEAS-LABRANZA",
    "LINEAS": [
      "161"
    ]
  },
  {
    "coordinates": [
      -3.81113529378365,
      40.2938499556865
    ],
    "CODIGOESTACION": 7701,
    "DENOMINACION": "MÓSTOLES-PºSANTIAGO DE COMPOSTELA",
    "LINEAS": [
      "526"
    ]
  },
  {
    "coordinates": [
      -3.86729072528917,
      40.4488063221355
    ],
    "CODIGOESTACION": 18855,
    "DENOMINACION": "VELÁZQUEZ-JOAQUÍN TURINA",
    "LINEAS": [
      "567",
      "626",
      "655"
    ]
  },
  {
    "coordinates": [
      -4.00457876956646,
      40.4480713625756
    ],
    "CODIGOESTACION": 6197,
    "DENOMINACION": "EMPEDRADA-REAL",
    "LINEAS": [
      "530",
      "581",
      "626",
      "627",
      "669"
    ]
  },
  {
    "coordinates": [
      -4.00820800934739,
      40.5794293838121
    ],
    "CODIGOESTACION": 12460,
    "DENOMINACION": "PEDRIZA-CEMENTERIO VIEJO",
    "LINEAS": [
      "630",
      "632",
      "634"
    ]
  },
  {
    "coordinates": [
      -3.88636873169764,
      40.3281106990472
    ],
    "CODIGOESTACION": 6684,
    "DENOMINACION": "CICLISTA DAVID GEA-POLIDEPORTIVO",
    "LINEAS": [
      "526"
    ]
  },
  {
    "coordinates": [
      -3.99208650547296,
      40.2334599062931
    ],
    "CODIGOESTACION": 7391,
    "DENOMINACION": "MÁRTIRES-LOS POCILLOS",
    "LINEAS": [
      "528",
      "529",
      "539",
      "529A"
    ]
  },
  {
    "coordinates": [
      -3.79628170866014,
      40.2836378613412
    ],
    "CODIGOESTACION": 7750,
    "DENOMINACION": "MÓSTOLES-DELICIAS",
    "LINEAS": [
      "526"
    ]
  },
  {
    "coordinates": [
      -3.36601250514762,
      40.4709278250957
    ],
    "CODIGOESTACION": 12416,
    "DENOMINACION": "PºPASTRANA-BOLARQUE",
    "LINEAS": [
      "231",
      "232",
      "260",
      "271",
      "272",
      "320"
    ]
  },
  {
    "coordinates": [
      -3.81605275669716,
      40.2968082466535
    ],
    "CODIGOESTACION": 8172,
    "DENOMINACION": "MÓSTOLES-POL.IND.VEREDA DEL TEMPRANAR",
    "LINEAS": [
      "526"
    ]
  },
  {
    "coordinates": [
      -3.81578179061304,
      40.2965384161888
    ],
    "CODIGOESTACION": 8173,
    "DENOMINACION": "MÓSTOLES-POL.IND.RESTAURANTE",
    "LINEAS": [
      "526"
    ]
  },
  {
    "coordinates": [
      -3.82825952399223,
      40.3024695845104
    ],
    "CODIGOESTACION": 8176,
    "DENOMINACION": "CTRA.M506-POL.IND.LA CARRERA",
    "LINEAS": [
      "526"
    ]
  },
  {
    "coordinates": [
      -3.61753389003536,
      40.0247375944476
    ],
    "CODIGOESTACION": 12473,
    "DENOMINACION": "PºDELEITE-FRESNO",
    "LINEAS": [
      ""
    ]
  },
  {
    "coordinates": [
      -3.67649263391506,
      40.4384145186871
    ],
    "CODIGOESTACION": 12477,
    "DENOMINACION": "INTERCAMBIADOR DE AVENIDA AMÉRICA",
    "LINEAS": [
      "222",
      "223",
      "224",
      "226",
      "227",
      "229",
      "261",
      "281",
      "282",
      "283",
      "284",
      "224A",
      "243R1",
      "243R2",
      "243R3",
      "243R4",
      "243R6"
    ]
  },
  {
    "coordinates": [
      -3.57848080181823,
      40.7684336574683
    ],
    "CODIGOESTACION": 12480,
    "DENOMINACION": "EL VELLÓN-LA MINA",
    "LINEAS": [
      "191",
      "193",
      "197D"
    ]
  },
  {
    "coordinates": [
      -3.82790605458368,
      40.3005363317304
    ],
    "CODIGOESTACION": 8177,
    "DENOMINACION": "CTRA.M506-AV.CIUDAD JARDIN",
    "LINEAS": [
      "526"
    ]
  },
  {
    "coordinates": [
      -3.74941644774887,
      40.2561153374617
    ],
    "CODIGOESTACION": 16284,
    "DENOMINACION": "MOLINASECA-LEÓN",
    "LINEAS": [
      "462",
      "471"
    ]
  },
  {
    "coordinates": [
      -3.82120085555039,
      40.2477110376066
    ],
    "CODIGOESTACION": 12777,
    "DENOMINACION": "AV.DEPORTES-COMPLEJO DEPORTIVO",
    "LINEAS": [
      "471"
    ]
  },
  {
    "coordinates": [
      -3.82120792577169,
      40.247574488112
    ],
    "CODIGOESTACION": 12778,
    "DENOMINACION": "AV.DEPORTES-COMPLEJO DEPORTIVO",
    "LINEAS": [
      "471"
    ]
  },
  {
    "coordinates": [
      -3.82442843928898,
      40.2477651155103
    ],
    "CODIGOESTACION": 12780,
    "DENOMINACION": "AV.DEPORTES-PZA.DE LA JUVENTUD",
    "LINEAS": [
      "471"
    ]
  },
  {
    "coordinates": [
      -3.60365051633748,
      40.7438017806575
    ],
    "CODIGOESTACION": 12781,
    "DENOMINACION": "ERAS-AV.MADRID",
    "LINEAS": [
      "191",
      "193",
      "194",
      "196"
    ]
  },
  {
    "coordinates": [
      -3.35138925336149,
      40.4918473417557
    ],
    "CODIGOESTACION": 12782,
    "DENOMINACION": "VÍA COMPLUTENSE-BARRIO LEDESMA",
    "LINEAS": [
      "223",
      "231",
      "232",
      "251",
      "252",
      "254",
      "255",
      "N202"
    ]
  },
  {
    "coordinates": [
      -3.3511406091057,
      40.4916859317177
    ],
    "CODIGOESTACION": 12783,
    "DENOMINACION": "VÍA COMPLUTENSE-BARRIO LEDESMA",
    "LINEAS": [
      "223",
      "231",
      "232",
      "251",
      "252",
      "254",
      "255",
      "N202"
    ]
  },
  {
    "coordinates": [
      -3.35485714252984,
      40.4893322638631
    ],
    "CODIGOESTACION": 12785,
    "DENOMINACION": "VÍA COMPLUTENSE-TUY",
    "LINEAS": [
      "223",
      "231",
      "232",
      "251",
      "252",
      "254",
      "255",
      "824",
      "N202"
    ]
  },
  {
    "coordinates": [
      -3.37841014217139,
      40.4894110105379
    ],
    "CODIGOESTACION": 12788,
    "DENOMINACION": "AV.AJALVIR-AMADEO VIVES",
    "LINEAS": [
      "227"
    ]
  },
  {
    "coordinates": [
      -3.7921079222816,
      40.2962466468759
    ],
    "CODIGOESTACION": 12790,
    "DENOMINACION": "BARCELONA-EST.LA SERNA",
    "LINEAS": [
      ""
    ]
  },
  {
    "coordinates": [
      -3.7910084165295,
      40.2935605249824
    ],
    "CODIGOESTACION": 12791,
    "DENOMINACION": "AV.ESPAÑA-LEGANÉS",
    "LINEAS": [
      ""
    ]
  },
  {
    "coordinates": [
      -3.77276878799589,
      40.669053906217
    ],
    "CODIGOESTACION": 12792,
    "DENOMINACION": "CORREDERA-LAS COLMENAS",
    "LINEAS": [
      "723",
      "727"
    ]
  },
  {
    "coordinates": [
      -4.15872191559968,
      40.5141733230236
    ],
    "CODIGOESTACION": 12804,
    "DENOMINACION": "CTRA.M532-FUENTELÁMPARAS",
    "LINEAS": [
      "669A"
    ]
  },
  {
    "coordinates": [
      -3.636235484362,
      40.738888594239
    ],
    "CODIGOESTACION": 12769,
    "DENOMINACION": "AV.ESPAÑA-SEVILLA",
    "LINEAS": [
      ""
    ]
  },
  {
    "coordinates": [
      -3.63172966362696,
      40.7342725227104
    ],
    "CODIGOESTACION": 12770,
    "DENOMINACION": "SAN SEBASTIÁN-AV.SANTANDER",
    "LINEAS": [
      ""
    ]
  },
  {
    "coordinates": [
      -3.62416432277337,
      40.7335492460852
    ],
    "CODIGOESTACION": 12771,
    "DENOMINACION": "BURGOS-TOLEDO",
    "LINEAS": [
      ""
    ]
  },
  {
    "coordinates": [
      -3.37057993889239,
      40.1603929932569
    ],
    "CODIGOESTACION": 12809,
    "DENOMINACION": "JOSÉ ANTONIO-TRVA.DE LA FUENTE",
    "LINEAS": [
      "430"
    ]
  },
  {
    "coordinates": [
      -3.82481173324119,
      40.3517762562299
    ],
    "CODIGOESTACION": 12876,
    "DENOMINACION": "AV.LEGANÉS-AV.BELLAS VISTAS",
    "LINEAS": [
      ""
    ]
  },
  {
    "coordinates": [
      -3.67584524602117,
      40.1938990193237
    ],
    "CODIGOESTACION": 12888,
    "DENOMINACION": "DOCTOR FLEMING-DOCTOR CASTELO",
    "LINEAS": [
      ""
    ]
  },
  {
    "coordinates": [
      -3.67838947904887,
      40.1957400805107
    ],
    "CODIGOESTACION": 12889,
    "DENOMINACION": "GUARDIA CIVIL-CENTRO RAMÓN ARECES",
    "LINEAS": [
      ""
    ]
  },
  {
    "coordinates": [
      -3.67623573323268,
      40.186382153345
    ],
    "CODIGOESTACION": 12892,
    "DENOMINACION": "PºE.TIERNO GALVÁN-PARQUE TIERNO GALVÁN",
    "LINEAS": [
      "N401"
    ]
  },
  {
    "coordinates": [
      -3.35851078965447,
      40.5085283995607
    ],
    "CODIGOESTACION": 12896,
    "DENOMINACION": "ALFONSO VII-RESIDENCIA DE MAYORES",
    "LINEAS": [
      ""
    ]
  },
  {
    "coordinates": [
      -3.35596545584929,
      40.5101515266861
    ],
    "CODIGOESTACION": 12897,
    "DENOMINACION": "JOSÉ ORTEGA Y GASSET-CIUDAD 10",
    "LINEAS": [
      ""
    ]
  },
  {
    "coordinates": [
      -3.35337026978771,
      40.5096162482429
    ],
    "CODIGOESTACION": 12899,
    "DENOMINACION": "J.RAMÓN JIMÉNEZ-JOSÉ ORTEGA Y GASSET",
    "LINEAS": [
      ""
    ]
  },
  {
    "coordinates": [
      -3.35359812262399,
      40.5080479750504
    ],
    "CODIGOESTACION": 12900,
    "DENOMINACION": "J.RAMÓN JIMÉNEZ-OCHO DE MARZO",
    "LINEAS": [
      ""
    ]
  },
  {
    "coordinates": [
      -3.74553192805216,
      40.2846997879623
    ],
    "CODIGOESTACION": 12902,
    "DENOMINACION": "AV.LIBERTAD-PINILLA",
    "LINEAS": [
      "444",
      "455",
      "462"
    ]
  },
  {
    "coordinates": [
      -3.86293030316224,
      40.4710169202027
    ],
    "CODIGOESTACION": 12908,
    "DENOMINACION": "NORIAS-JUZGADOS",
    "LINEAS": [
      "654"
    ]
  },
  {
    "coordinates": [
      -3.85040256322715,
      40.4466415710957
    ],
    "CODIGOESTACION": 8783,
    "DENOMINACION": "CTRA.POZUELO-URB.MONTECLARO",
    "LINEAS": [
      "561",
      "650",
      "659",
      "561A",
      "561B",
      "N901"
    ]
  },
  {
    "coordinates": [
      -3.85339455041903,
      40.4483505589611
    ],
    "CODIGOESTACION": 8786,
    "DENOMINACION": "CTRA.POZUELO-CENTRO DE PREVENCIÓN",
    "LINEAS": [
      "561",
      "650",
      "659",
      "561A",
      "561B",
      "N906"
    ]
  },
  {
    "coordinates": [
      -4.23709453108176,
      40.2663096818823
    ],
    "CODIGOESTACION": 99983,
    "DENOMINACION": "URB.CALALBERCHE-CHURRERÍA",
    "LINEAS": [
      "548"
    ]
  },
  {
    "coordinates": [
      -3.75590043855144,
      40.8378694089906
    ],
    "CODIGOESTACION": 12651,
    "DENOMINACION": "CTRA.M610-BADÉN DEL HOYUELO",
    "LINEAS": [
      "725"
    ]
  },
  {
    "coordinates": [
      -3.6797547680219,
      40.8174478571614
    ],
    "CODIGOESTACION": 12652,
    "DENOMINACION": "CTRA.M625-URB.LAS PRADERAS",
    "LINEAS": [
      "726",
      "197C"
    ]
  },
  {
    "coordinates": [
      -3.7176066547287,
      40.8583863573511
    ],
    "CODIGOESTACION": 12654,
    "DENOMINACION": "BUSTARVIEJO-ARROYO FLORES",
    "LINEAS": [
      "725"
    ]
  },
  {
    "coordinates": [
      -3.28112127311194,
      40.1679413989636
    ],
    "CODIGOESTACION": 12666,
    "DENOMINACION": "BELMONTE-POLIDEPORTIVO",
    "LINEAS": [
      "430"
    ]
  },
  {
    "coordinates": [
      -3.83332276776471,
      40.2952836584669
    ],
    "CODIGOESTACION": 12636,
    "DENOMINACION": "GABRIELA MISTRAL-AV.OCHO DE MARZO",
    "LINEAS": [
      ""
    ]
  },
  {
    "coordinates": [
      -3.10777148512128,
      40.1857576186625
    ],
    "CODIGOESTACION": 10430,
    "DENOMINACION": "PUERTA DE VIÑAS-AV.COMUNIDAD DE MADRID",
    "LINEAS": [
      "351",
      "355",
      "350A"
    ]
  },
  {
    "coordinates": [
      -3.10804939122658,
      40.1835629307829
    ],
    "CODIGOESTACION": 7286,
    "DENOMINACION": "DON MANUEL MARTÍNEZ AEDO-COLEGIO",
    "LINEAS": [
      "351",
      "355",
      "350A"
    ]
  },
  {
    "coordinates": [
      -3.28643853297902,
      40.1736184364358
    ],
    "CODIGOESTACION": 11453,
    "DENOMINACION": "AV.HERMANOS GÓMEZ CUÉTARA-INSTITUTO",
    "LINEAS": [
      "351",
      "352",
      "353",
      "350A",
      "350B",
      "350C"
    ]
  },
  {
    "coordinates": [
      -3.87611079526927,
      40.3256394518936
    ],
    "CODIGOESTACION": 12956,
    "DENOMINACION": "GRANADA-JAEN",
    "LINEAS": [
      "519",
      "526",
      "N501"
    ]
  },
  {
    "coordinates": [
      -3.92681463390628,
      40.3767109601332
    ],
    "CODIGOESTACION": 13137,
    "DENOMINACION": "TAJO-TRVA.TAJO",
    "LINEAS": [
      "518",
      "N504"
    ]
  },
  {
    "coordinates": [
      -3.39639619640968,
      40.4822234947371
    ],
    "CODIGOESTACION": 12681,
    "DENOMINACION": "AV.JUAN CARLOS I-GTA.FELIPE IV",
    "LINEAS": [
      "227"
    ]
  },
  {
    "coordinates": [
      -3.395380412277,
      40.4822969948395
    ],
    "CODIGOESTACION": 12682,
    "DENOMINACION": "AV.JUAN CARLOS I-EST.LA GARENA",
    "LINEAS": [
      "227"
    ]
  },
  {
    "coordinates": [
      -3.39413599347311,
      40.483063108728
    ],
    "CODIGOESTACION": 12683,
    "DENOMINACION": "AV.JUAN CARLOS I-EST.LA GARENA",
    "LINEAS": [
      "227"
    ]
  },
  {
    "coordinates": [
      -3.39245244358641,
      40.4833913404771
    ],
    "CODIGOESTACION": 12684,
    "DENOMINACION": "AV.JUAN CARLOS I-AGUSTÍN DE BETHENCOURT",
    "LINEAS": [
      "227"
    ]
  },
  {
    "coordinates": [
      -3.38446350879722,
      40.4871876577161
    ],
    "CODIGOESTACION": 12687,
    "DENOMINACION": "AV.EUROPA-FEDERICO CHUECA",
    "LINEAS": [
      "227"
    ]
  },
  {
    "coordinates": [
      -3.38440653301653,
      40.4870012940578
    ],
    "CODIGOESTACION": 12688,
    "DENOMINACION": "AV.EUROPA-FEDERICO CHUECA",
    "LINEAS": [
      "227"
    ]
  },
  {
    "coordinates": [
      -3.19634536511882,
      40.2088625872837
    ],
    "CODIGOESTACION": 16268,
    "DENOMINACION": "CTRA.ARANJUEZ BREA-VILLAREJO",
    "LINEAS": [
      "351",
      "350A"
    ]
  },
  {
    "coordinates": [
      -3.39979930814289,
      40.4807536224187
    ],
    "CODIGOESTACION": 12694,
    "DENOMINACION": "AV.JUAN CARLOS I-C.C.ALCALÁ DE HENARES",
    "LINEAS": [
      "227"
    ]
  },
  {
    "coordinates": [
      -3.85593830885075,
      40.4703616839184
    ],
    "CODIGOESTACION": 12910,
    "DENOMINACION": "NORIAS-INSTITUTO",
    "LINEAS": [
      "654"
    ]
  },
  {
    "coordinates": [
      -3.92689492414899,
      40.3768843240654
    ],
    "CODIGOESTACION": 13136,
    "DENOMINACION": "TAJO-TRVA.TAJO",
    "LINEAS": [
      "518",
      "N504"
    ]
  },
  {
    "coordinates": [
      -3.93005642936827,
      40.384396788464
    ],
    "CODIGOESTACION": 13140,
    "DENOMINACION": "TERA-CENTRO COMERCIAL",
    "LINEAS": [
      "518",
      "519",
      "N504"
    ]
  },
  {
    "coordinates": [
      -3.89532006571821,
      40.4173125620993
    ],
    "CODIGOESTACION": 15578,
    "DENOMINACION": "M.ÁNGEL CANTERO OLIVA-JAIME FERRÁN",
    "LINEAS": [
      "573",
      "574",
      "575",
      "N905"
    ]
  },
  {
    "coordinates": [
      -3.93576277166617,
      40.3025505919143
    ],
    "CODIGOESTACION": 16186,
    "DENOMINACION": "ENCINAS-LOS ARCES",
    "LINEAS": [
      ""
    ]
  },
  {
    "coordinates": [
      -3.07693484091976,
      40.1168013409592
    ],
    "CODIGOESTACION": 17837,
    "DENOMINACION": "CENTRO PENITENCIARIO MADRID VII",
    "LINEAS": [
      "355"
    ]
  },
  {
    "coordinates": [
      -3.62166360761774,
      41.0275094319738
    ],
    "CODIGOESTACION": 10390,
    "DENOMINACION": "CTRA.A1-CRUCE LA SERNA DEL MONTE",
    "LINEAS": [
      "191"
    ]
  },
  {
    "coordinates": [
      -3.16619030585251,
      40.1143346740123
    ],
    "CODIGOESTACION": 16733,
    "DENOMINACION": "ORQUÍDEAS-JAZMINES",
    "LINEAS": [
      "353",
      "350C"
    ]
  },
  {
    "coordinates": [
      -3.2865496209024,
      40.1735287772744
    ],
    "CODIGOESTACION": 11452,
    "DENOMINACION": "AV.HERMANOS GÓMEZ CUÉTARA-INSTITUTO",
    "LINEAS": [
      "351",
      "352",
      "353",
      "350A",
      "350B",
      "350C"
    ]
  },
  {
    "coordinates": [
      -3.24311038769127,
      40.071009538312
    ],
    "CODIGOESTACION": 11326,
    "DENOMINACION": "MADRID-COL.NTRA.SRA.DE ALBUEL",
    "LINEAS": [
      "353",
      "350C"
    ]
  },
  {
    "coordinates": [
      -3.24324402916986,
      40.0709287328918
    ],
    "CODIGOESTACION": 11454,
    "DENOMINACION": "MADRID-ANTIGUO CUARTEL GUARDIA CIVIL",
    "LINEAS": [
      "353",
      "350C"
    ]
  },
  {
    "coordinates": [
      -3.58349308565558,
      40.8782988041986
    ],
    "CODIGOESTACION": 11201,
    "DENOMINACION": "CTRA.M127-URB.PRADERA DEL AMOR",
    "LINEAS": [
      "191",
      "196",
      "197B"
    ]
  },
  {
    "coordinates": [
      -3.53420963025891,
      40.8273310909536
    ],
    "CODIGOESTACION": 11737,
    "DENOMINACION": "CºSOLEDAD-AV.MADRID",
    "LINEAS": [
      "197",
      "913",
      "197A",
      "197B",
      "197C",
      "197D",
      "197E"
    ]
  },
  {
    "coordinates": [
      -3.49703239294367,
      40.8362747835324
    ],
    "CODIGOESTACION": 10308,
    "DENOMINACION": "TORREMOCHA DE JARAMA-PZA.COMERCIO",
    "LINEAS": [
      "197",
      "913",
      "197A"
    ]
  },
  {
    "coordinates": [
      -3.58283731238761,
      40.8784401045217
    ],
    "CODIGOESTACION": 11202,
    "DENOMINACION": "CTRA.M127-URB.PRADERA DEL AMOR",
    "LINEAS": [
      "191",
      "196",
      "197B"
    ]
  },
  {
    "coordinates": [
      -3.56187759699419,
      40.8886004613847
    ],
    "CODIGOESTACION": 10412,
    "DENOMINACION": "EL BERRUECO-REAL",
    "LINEAS": [
      "191",
      "196"
    ]
  },
  {
    "coordinates": [
      -3.56175660582033,
      40.8884056064762
    ],
    "CODIGOESTACION": 10411,
    "DENOMINACION": "CTRA.M138-EL BERRUECO",
    "LINEAS": [
      "191",
      "196"
    ]
  },
  {
    "coordinates": [
      -3.48767410444748,
      40.8526737443855
    ],
    "CODIGOESTACION": 17065,
    "DENOMINACION": "PATONES-RESIDENCIA",
    "LINEAS": [
      "197",
      "913",
      "197A"
    ]
  },
  {
    "coordinates": [
      -3.48755303186231,
      40.8529495454373
    ],
    "CODIGOESTACION": 17064,
    "DENOMINACION": "PATONES-RESIDENCIA",
    "LINEAS": [
      "197",
      "913",
      "197A"
    ]
  },
  {
    "coordinates": [
      -3.44069193546377,
      40.2994579338349
    ],
    "CODIGOESTACION": 11298,
    "DENOMINACION": "SANTIAGO APOSTOL-SAN JOSÉ",
    "LINEAS": [
      "312",
      "321",
      "312A"
    ]
  },
  {
    "coordinates": [
      -3.44639976209075,
      40.2960216025222
    ],
    "CODIGOESTACION": 11301,
    "DENOMINACION": "RONDA SUR-LA PERLITA",
    "LINEAS": [
      "330"
    ]
  },
  {
    "coordinates": [
      -3.44649106000033,
      40.2973816501017
    ],
    "CODIGOESTACION": 11302,
    "DENOMINACION": "SIETE VIENTOS-RAFAEL ALBERTI",
    "LINEAS": [
      ""
    ]
  },
  {
    "coordinates": [
      -3.95053219448496,
      40.4134674115928
    ],
    "CODIGOESTACION": 10483,
    "DENOMINACION": "CTRA.M513-URB.RAYA DEL PALANCAR",
    "LINEAS": [
      "575",
      "580"
    ]
  },
  {
    "coordinates": [
      -3.62791416033421,
      40.5587237513305
    ],
    "CODIGOESTACION": 10488,
    "DENOMINACION": "AV.ARAGÓN-PZA.ABOGADOS DE ATOCHA",
    "LINEAS": [
      "154C"
    ]
  },
  {
    "coordinates": [
      -3.63672578968892,
      40.557477436584
    ],
    "CODIGOESTACION": 10446,
    "DENOMINACION": "AV.ROSA LUXEMBURGO-AV.MIGUEL HDEZ.",
    "LINEAS": [
      "158",
      "154C"
    ]
  },
  {
    "coordinates": [
      -3.63633662561029,
      40.5575426399763
    ],
    "CODIGOESTACION": 10447,
    "DENOMINACION": "AV.ROSA LUXEMBURGO-CALDERÓN DE LA BARCA",
    "LINEAS": [
      "158",
      "154C",
      "N102"
    ]
  },
  {
    "coordinates": [
      -3.83030701298034,
      40.249050061072
    ],
    "CODIGOESTACION": 16304,
    "DENOMINACION": "RÍO GUATEN-COLEGIO",
    "LINEAS": [
      "471"
    ]
  },
  {
    "coordinates": [
      -3.82776751056777,
      40.2484915966598
    ],
    "CODIGOESTACION": 16305,
    "DENOMINACION": "RÍO GUATEN-AMARO",
    "LINEAS": [
      "471"
    ]
  },
  {
    "coordinates": [
      -3.68590289259384,
      40.1788392919825
    ],
    "CODIGOESTACION": 12984,
    "DENOMINACION": "AV.MAR MEDITERRÁNEO-ATENEA",
    "LINEAS": [
      ""
    ]
  },
  {
    "coordinates": [
      -3.36630849173742,
      40.4489628431131
    ],
    "CODIGOESTACION": 13008,
    "DENOMINACION": "AV.ESPAÑA-CENTRO COMERCIAL",
    "LINEAS": [
      "231"
    ]
  },
  {
    "coordinates": [
      -3.37522840952047,
      40.4098392402209
    ],
    "CODIGOESTACION": 13010,
    "DENOMINACION": "ROMA-LONDRES",
    "LINEAS": [
      "231"
    ]
  },
  {
    "coordinates": [
      -3.3720612186462,
      40.4077817310855
    ],
    "CODIGOESTACION": 13012,
    "DENOMINACION": "ATENAS-MADRID",
    "LINEAS": [
      "231"
    ]
  },
  {
    "coordinates": [
      -3.70186665185204,
      40.2484940265274
    ],
    "CODIGOESTACION": 16461,
    "DENOMINACION": "ANTONIO TAPIES-LUCIO MUÑOZ",
    "LINEAS": [
      ""
    ]
  },
  {
    "coordinates": [
      -3.74798779324915,
      40.2567134314717
    ],
    "CODIGOESTACION": 16286,
    "DENOMINACION": "BARRIOS-FELIPE ASENJO",
    "LINEAS": [
      "462",
      "471"
    ]
  },
  {
    "coordinates": [
      -3.19649608493345,
      40.2087092858993
    ],
    "CODIGOESTACION": 16269,
    "DENOMINACION": "CTRA.ARANJUEZ BREA-VILLAREJO",
    "LINEAS": [
      "351",
      "350A"
    ]
  },
  {
    "coordinates": [
      -4.07094330182299,
      40.7574315211291
    ],
    "CODIGOESTACION": 16384,
    "DENOMINACION": "CTRA.FUENFRÍA-CENTRO DE INTERPRETACIÓN",
    "LINEAS": [
      ""
    ]
  },
  {
    "coordinates": [
      -4.30195768793646,
      40.2788909791656
    ],
    "CODIGOESTACION": 12733,
    "DENOMINACION": "AV.HOSPITAL-AV.ESPAÑA",
    "LINEAS": [
      "545",
      "547"
    ]
  },
  {
    "coordinates": [
      -3.82823923194161,
      40.2064058115767
    ],
    "CODIGOESTACION": 12738,
    "DENOMINACION": "CTRA.M404-URB.LAS LADERAS",
    "LINEAS": [
      "468"
    ]
  },
  {
    "coordinates": [
      -3.85460506294019,
      40.2068989601658
    ],
    "CODIGOESTACION": 12739,
    "DENOMINACION": "AV.PORTUGAL-LLANADA",
    "LINEAS": [
      "460",
      "468"
    ]
  },
  {
    "coordinates": [
      -3.85476831157759,
      40.2067986532409
    ],
    "CODIGOESTACION": 12740,
    "DENOMINACION": "AV.PORTUGAL-POL.IND.LA ESTACIÓN",
    "LINEAS": [
      "460",
      "468"
    ]
  },
  {
    "coordinates": [
      -3.80726869048278,
      40.3471988716598
    ],
    "CODIGOESTACION": 12750,
    "DENOMINACION": "MINISTRO FDEZ.ORDÓÑEZ-AV.DEL PINAR",
    "LINEAS": [
      "514"
    ]
  },
  {
    "coordinates": [
      -3.93519844341021,
      40.3084678890287
    ],
    "CODIGOESTACION": 12705,
    "DENOMINACION": "LOS FRESNOS-LOS ARCES",
    "LINEAS": [
      ""
    ]
  },
  {
    "coordinates": [
      -3.81084066967121,
      40.3493614063577
    ],
    "CODIGOESTACION": 12761,
    "DENOMINACION": "MINISTRO FDEZ.ORDÓÑEZ-PARQUE GRANDE",
    "LINEAS": [
      "514"
    ]
  },
  {
    "coordinates": [
      -3.61464188789816,
      40.7668699864108
    ],
    "CODIGOESTACION": 12764,
    "DENOMINACION": "CTRA.M627-GRANJA ESCUELA",
    "LINEAS": [
      ""
    ]
  },
  {
    "coordinates": [
      -3.61361715421721,
      40.7637392641455
    ],
    "CODIGOESTACION": 12765,
    "DENOMINACION": "CTRA.M627-URB.ATALAYA REAL",
    "LINEAS": [
      ""
    ]
  },
  {
    "coordinates": [
      -3.62915501291887,
      40.7378463097756
    ],
    "CODIGOESTACION": 12768,
    "DENOMINACION": "AV.OLIMPIADAS-POLIDEPORTIVO",
    "LINEAS": [
      ""
    ]
  },
  {
    "coordinates": [
      -3.83179966974752,
      40.2999874800105
    ],
    "CODIGOESTACION": 12635,
    "DENOMINACION": "AV.PABLO IGLESIAS-AV.CIUDAD JARDÍN",
    "LINEAS": [
      ""
    ]
  },
  {
    "coordinates": [
      -4.11266153422143,
      40.5440845141825
    ],
    "CODIGOESTACION": 12639,
    "DENOMINACION": "CTRA.M533-URB.EL ALCOR",
    "LINEAS": [
      "666",
      "669A"
    ]
  },
  {
    "coordinates": [
      -3.91518129395454,
      40.5131419033306
    ],
    "CODIGOESTACION": 9817,
    "DENOMINACION": "ARISTÓTELES-POLIDEPORTIVO",
    "LINEAS": [
      "620",
      "625",
      "628",
      "N903"
    ]
  },
  {
    "coordinates": [
      -3.92353829745696,
      40.5174447582281
    ],
    "CODIGOESTACION": 9820,
    "DENOMINACION": "AV.ATENAS-C.C.ZOCO MONTERROZAS",
    "LINEAS": [
      "620",
      "625",
      "N903"
    ]
  },
  {
    "coordinates": [
      -3.66364663626167,
      40.8712668691151
    ],
    "CODIGOESTACION": 10344,
    "DENOMINACION": "VALDEMANCO-AV.DESVÍO",
    "LINEAS": [
      "725",
      "197B",
      "197C"
    ]
  },
  {
    "coordinates": [
      -3.90839691494766,
      40.5317176280767
    ],
    "CODIGOESTACION": 9826,
    "DENOMINACION": "AV.ATENAS-URB.EL PINAR",
    "LINEAS": [
      "620",
      "625",
      "N903"
    ]
  },
  {
    "coordinates": [
      -3.22190359647904,
      40.3687948624011
    ],
    "CODIGOESTACION": 9776,
    "DENOMINACION": "PZA.VILLA-MAYOR",
    "LINEAS": [
      "260",
      "261",
      "321"
    ]
  },
  {
    "coordinates": [
      -3.26540712056426,
      40.3553196786239
    ],
    "CODIGOESTACION": 9739,
    "DENOMINACION": "COMUNIDAD EUROPEA-CENTRO COMERCIAL",
    "LINEAS": [
      "261",
      "321"
    ]
  },
  {
    "coordinates": [
      -3.27128821366712,
      40.3560324237333
    ],
    "CODIGOESTACION": 9740,
    "DENOMINACION": "RONDA MANCHESTER-RONDA HISPANOAMERICANA",
    "LINEAS": [
      "261",
      "321"
    ]
  },
  {
    "coordinates": [
      -3.26850473232263,
      40.3489936529001
    ],
    "CODIGOESTACION": 9741,
    "DENOMINACION": "RONDA HISPANOAMERICANA-PºMADRID",
    "LINEAS": [
      "260",
      "261",
      "321"
    ]
  },
  {
    "coordinates": [
      -3.26065731669847,
      40.3507502593762
    ],
    "CODIGOESTACION": 9742,
    "DENOMINACION": "RONDA HISPANOAMERICANA-NUEVE",
    "LINEAS": [
      "260",
      "261",
      "321"
    ]
  },
  {
    "coordinates": [
      -3.22189149517731,
      40.3686957833393
    ],
    "CODIGOESTACION": 9745,
    "DENOMINACION": "MAYOR-PZA.VILLA",
    "LINEAS": [
      "260",
      "261",
      "321"
    ]
  },
  {
    "coordinates": [
      -3.44868693921845,
      40.3109681344192
    ],
    "CODIGOESTACION": 9750,
    "DENOMINACION": "AV.ALCALÁ DE HENARES-URB.LOS VILLARES",
    "LINEAS": [
      "313",
      "320",
      "321"
    ]
  },
  {
    "coordinates": [
      -3.44913384080858,
      40.3109213593306
    ],
    "CODIGOESTACION": 9751,
    "DENOMINACION": "AV.ALCALÁ DE HENARES-URB.LOS VILLARES",
    "LINEAS": [
      "313",
      "320",
      "321"
    ]
  },
  {
    "coordinates": [
      -3.39510820287872,
      40.3339049621409
    ],
    "CODIGOESTACION": 9755,
    "DENOMINACION": "CTRA.M209-URB.MONTEHERMOSO",
    "LINEAS": [
      "313",
      "320",
      "321"
    ]
  },
  {
    "coordinates": [
      -3.30166043836164,
      40.2977129491923
    ],
    "CODIGOESTACION": 9756,
    "DENOMINACION": "ALCALÁ-ESPINO",
    "LINEAS": [
      "313"
    ]
  },
  {
    "coordinates": [
      -3.30051355178128,
      40.2937878771248
    ],
    "CODIGOESTACION": 9757,
    "DENOMINACION": "ALCALÁ-MAYOR",
    "LINEAS": [
      "313"
    ]
  },
  {
    "coordinates": [
      -3.93586484053786,
      40.2948496535225
    ],
    "CODIGOESTACION": 15403,
    "DENOMINACION": "PUERTO DE SOMOSIERRA-CTRA.M413",
    "LINEAS": [
      "498",
      "534"
    ]
  },
  {
    "coordinates": [
      -3.93630963760838,
      40.2943717023985
    ],
    "CODIGOESTACION": 15404,
    "DENOMINACION": "PUERTO DE SOMOSIERRA-CTRA.M413",
    "LINEAS": [
      "498",
      "534"
    ]
  },
  {
    "coordinates": [
      -3.73552902270844,
      40.3050165216303
    ],
    "CODIGOESTACION": 12848,
    "DENOMINACION": "FERROCARRIL-LOPE DE VEGA",
    "LINEAS": [
      "N801",
      "N807"
    ]
  },
  {
    "coordinates": [
      -4.32621673791399,
      40.3616319803594
    ],
    "CODIGOESTACION": 12853,
    "DENOMINACION": "AV.MARCIAL LLORENTE-URB.PINOS VERDES",
    "LINEAS": [
      "551"
    ]
  },
  {
    "coordinates": [
      -3.69214262272731,
      40.2671693782006
    ],
    "CODIGOESTACION": 12855,
    "DENOMINACION": "SIERRA NEVADA-LAS MARISMAS",
    "LINEAS": [
      "421",
      "N401"
    ]
  },
  {
    "coordinates": [
      -3.68842647891494,
      40.6121225426597
    ],
    "CODIGOESTACION": 12857,
    "DENOMINACION": "ALAMEDA BAJA-PºCARRIZAL",
    "LINEAS": [
      "716"
    ]
  },
  {
    "coordinates": [
      -3.68709924983755,
      40.6080531762333
    ],
    "CODIGOESTACION": 12861,
    "DENOMINACION": "PºANDES-PºCARRIZAL",
    "LINEAS": [
      "716"
    ]
  },
  {
    "coordinates": [
      -3.66601208954251,
      40.1903161777141
    ],
    "CODIGOESTACION": 16398,
    "DENOMINACION": "CTA.VALDERREMATA-TANATORIO",
    "LINEAS": [
      ""
    ]
  },
  {
    "coordinates": [
      -3.37693702202886,
      40.54676919008
    ],
    "CODIGOESTACION": 10405,
    "DENOMINACION": "CºALCALÁ-PARQUE",
    "LINEAS": [
      "251",
      "255"
    ]
  },
  {
    "coordinates": [
      -3.58534428101162,
      41.0673851632984
    ],
    "CODIGOESTACION": 10406,
    "DENOMINACION": "HORCAJO DE LA SIERRA-CARRETAS",
    "LINEAS": [
      "196",
      "191B"
    ]
  },
  {
    "coordinates": [
      -3.27583328800544,
      40.168743094673
    ],
    "CODIGOESTACION": 10413,
    "DENOMINACION": "PZA.ESPAÑA-AYUNTAMIENTO",
    "LINEAS": [
      "351",
      "350A"
    ]
  },
  {
    "coordinates": [
      -3.39592088927269,
      40.639946045862
    ],
    "CODIGOESTACION": 10415,
    "DENOMINACION": "CTRA.M113-URB.PARAJE DEL ARZOBISPO",
    "LINEAS": [
      "251",
      "256"
    ]
  },
  {
    "coordinates": [
      -3.41213944692129,
      40.5925892283628
    ],
    "CODIGOESTACION": 10419,
    "DENOMINACION": "CTRA.M113-FRESNO DE TOROTE",
    "LINEAS": [
      "251",
      "256"
    ]
  },
  {
    "coordinates": [
      -3.27611149800212,
      40.1687628300152
    ],
    "CODIGOESTACION": 10423,
    "DENOMINACION": "PZA.ESPAÑA-AYUNTAMIENTO",
    "LINEAS": [
      "351",
      "350A"
    ]
  },
  {
    "coordinates": [
      -3.2741595930493,
      40.1678945743711
    ],
    "CODIGOESTACION": 10424,
    "DENOMINACION": "ENCOMIENDA-CASTILLO",
    "LINEAS": [
      "352",
      "353",
      "350B",
      "350C"
    ]
  },
  {
    "coordinates": [
      -3.27076408541798,
      40.1707394017005
    ],
    "CODIGOESTACION": 10426,
    "DENOMINACION": "MAYOR-ERMITA",
    "LINEAS": [
      "351",
      "350A"
    ]
  },
  {
    "coordinates": [
      -3.19290088245935,
      40.2089134762859
    ],
    "CODIGOESTACION": 10427,
    "DENOMINACION": "CTRA.ARANJUEZ BREA-COLEGIO",
    "LINEAS": [
      "351",
      "350A"
    ]
  },
  {
    "coordinates": [
      -3.41234854175731,
      40.592398007296
    ],
    "CODIGOESTACION": 9653,
    "DENOMINACION": "CTRA.M113-FRESNO DE TOROTE",
    "LINEAS": [
      "251",
      "256"
    ]
  },
  {
    "coordinates": [
      -3.30026643306218,
      40.2937795057836
    ],
    "CODIGOESTACION": 9662,
    "DENOMINACION": "ALCALÁ-MIGUEL DE CERVANTES",
    "LINEAS": [
      "313"
    ]
  },
  {
    "coordinates": [
      -3.36476619568799,
      40.4078319013226
    ],
    "CODIGOESTACION": 9667,
    "DENOMINACION": "MADRID-REAL",
    "LINEAS": [
      "232",
      "320"
    ]
  },
  {
    "coordinates": [
      -3.36460081131111,
      40.4077603471455
    ],
    "CODIGOESTACION": 9668,
    "DENOMINACION": "MADRID-REAL",
    "LINEAS": [
      "232",
      "320"
    ]
  },
  {
    "coordinates": [
      -3.35326090543777,
      40.441715779485
    ],
    "CODIGOESTACION": 9671,
    "DENOMINACION": "LOS HUEROS-MAYOR",
    "LINEAS": [
      "232",
      "320"
    ]
  },
  {
    "coordinates": [
      -3.81762080133057,
      40.430037563066
    ],
    "CODIGOESTACION": 10854,
    "DENOMINACION": "SAN JUAN DE LA CRUZ-LOPE DE VEGA",
    "LINEAS": [
      "657",
      "657A"
    ]
  },
  {
    "coordinates": [
      -3.84627602623425,
      40.4429823703001
    ],
    "CODIGOESTACION": 10856,
    "DENOMINACION": "AV.MONTECLARO-CTRA.MAJADAHONDA",
    "LINEAS": [
      "657"
    ]
  },
  {
    "coordinates": [
      -3.87610391376218,
      40.3634806045569
    ],
    "CODIGOESTACION": 10860,
    "DENOMINACION": "PRADO-PEDRAZA",
    "LINEAS": [
      "510"
    ]
  },
  {
    "coordinates": [
      -3.87615008759577,
      40.3634081822425
    ],
    "CODIGOESTACION": 10861,
    "DENOMINACION": "PRADO-ALMERIA",
    "LINEAS": [
      "510"
    ]
  },
  {
    "coordinates": [
      -3.90347452711164,
      40.3502069467725
    ],
    "CODIGOESTACION": 10862,
    "DENOMINACION": "AV.DE MOSTOLES-CARPINTEROS",
    "LINEAS": [
      "519",
      "519A"
    ]
  },
  {
    "coordinates": [
      -3.97880534651015,
      40.4320088743831
    ],
    "CODIGOESTACION": 10865,
    "DENOMINACION": "RONDA RAYA-ANADERO",
    "LINEAS": [
      "626"
    ]
  },
  {
    "coordinates": [
      -3.81014317334183,
      40.4534572267276
    ],
    "CODIGOESTACION": 10867,
    "DENOMINACION": "AV.VAGUADA CERRO GAMOS-AV.BELLAS ARTES",
    "LINEAS": [
      "650",
      "656A"
    ]
  },
  {
    "coordinates": [
      -3.8099195516953,
      40.4534948278084
    ],
    "CODIGOESTACION": 10868,
    "DENOMINACION": "AV.VAGUADA CERRO GAMOS-NARANJO",
    "LINEAS": [
      "650",
      "656A"
    ]
  },
  {
    "coordinates": [
      -3.68512610385489,
      40.2196408281974
    ],
    "CODIGOESTACION": 10878,
    "DENOMINACION": "CTRA.A4-CENTRO DE ALMACENAJE Y DISTRIB.",
    "LINEAS": [
      "422",
      "424",
      "428",
      "N401"
    ]
  },
  {
    "coordinates": [
      -3.27144511978407,
      40.3569870348628
    ],
    "CODIGOESTACION": 10831,
    "DENOMINACION": "RONDA HISPANOAMERICANA-RONDA MANCHESTER",
    "LINEAS": [
      "260"
    ]
  },
  {
    "coordinates": [
      -3.74180681354493,
      40.4056178542481
    ],
    "CODIGOESTACION": 10791,
    "DENOMINACION": "PºOLIVOS-HUERTA DE LA CASTAÑEDA",
    "LINEAS": [
      "500"
    ]
  },
  {
    "coordinates": [
      -3.60315726197648,
      40.0290659265161
    ],
    "CODIGOESTACION": 10436,
    "DENOMINACION": "ALMÍBAR-CALANDRIA",
    "LINEAS": [
      ""
    ]
  },
  {
    "coordinates": [
      -3.58592185426725,
      40.9114138461917
    ],
    "CODIGOESTACION": 10396,
    "DENOMINACION": "SIETEIGLESIAS-REAL",
    "LINEAS": [
      "191",
      "196"
    ]
  },
  {
    "coordinates": [
      -3.58647202925913,
      40.9118614695267
    ],
    "CODIGOESTACION": 10397,
    "DENOMINACION": "SIETEIGLEIAS-REAL",
    "LINEAS": [
      "191",
      "196"
    ]
  },
  {
    "coordinates": [
      -3.61212011032802,
      40.9576664805036
    ],
    "CODIGOESTACION": 10399,
    "DENOMINACION": "CTRA.M135-CINCOVILLAS",
    "LINEAS": [
      "196",
      "191E"
    ]
  },
  {
    "coordinates": [
      -3.60195833323825,
      41.012917527387
    ],
    "CODIGOESTACION": 10402,
    "DENOMINACION": "GANDULLAS-PZA.SIERRA",
    "LINEAS": [
      "196",
      "911",
      "912",
      "191C",
      "199A"
    ]
  },
  {
    "coordinates": [
      -3.59947689119873,
      41.0330727785154
    ],
    "CODIGOESTACION": 10403,
    "DENOMINACION": "PIÑUECAR-PZA.MAYOR",
    "LINEAS": [
      "191B"
    ]
  },
  {
    "coordinates": [
      -3.72442164619749,
      40.9448503263041
    ],
    "CODIGOESTACION": 10364,
    "DENOMINACION": "CTRA.M634-CRUCE GARGANTILLA",
    "LINEAS": [
      "195",
      "195A"
    ]
  },
  {
    "coordinates": [
      -3.79156789472885,
      40.949688104783
    ],
    "CODIGOESTACION": 10367,
    "DENOMINACION": "CTRA.M604-LOZOYA",
    "LINEAS": [
      "194",
      "194A"
    ]
  },
  {
    "coordinates": [
      -3.79147269550463,
      40.9497899906314
    ],
    "CODIGOESTACION": 10368,
    "DENOMINACION": "CTRA.M604-LOZOYA",
    "LINEAS": [
      "194",
      "194A"
    ]
  },
  {
    "coordinates": [
      -3.84389250970282,
      40.9179056728688
    ],
    "CODIGOESTACION": 10370,
    "DENOMINACION": "ALAMEDA DEL VALLE-AYUNTAMIENTO",
    "LINEAS": [
      "194",
      "194A"
    ]
  },
  {
    "coordinates": [
      -3.85635540411057,
      40.9164896453286
    ],
    "CODIGOESTACION": 10371,
    "DENOMINACION": "CTRA.M604-OTERUELO DEL VALLE",
    "LINEAS": [
      "194",
      "194A"
    ]
  },
  {
    "coordinates": [
      -3.85601001099776,
      40.9164111330908
    ],
    "CODIGOESTACION": 10372,
    "DENOMINACION": "CTRA.M604-OTERUELO DEL VALLE",
    "LINEAS": [
      "194",
      "194A"
    ]
  },
  {
    "coordinates": [
      -3.71731973245672,
      40.9648659314628
    ],
    "CODIGOESTACION": 10374,
    "DENOMINACION": "GARGANTILLA DEL LOZOYA-PZA.CARLOS RUIZ",
    "LINEAS": [
      "195",
      "195A"
    ]
  },
  {
    "coordinates": [
      -3.592557941703,
      40.0339768537849
    ],
    "CODIGOESTACION": 9602,
    "DENOMINACION": "PRIMERO DE MAYO-POLIDEPORTIVO",
    "LINEAS": [
      ""
    ]
  },
  {
    "coordinates": [
      -3.61298305867634,
      40.0282485133403
    ],
    "CODIGOESTACION": 9603,
    "DENOMINACION": "AV.LOYOLA-PZA.MATADERO",
    "LINEAS": [
      ""
    ]
  },
  {
    "coordinates": [
      -3.61297053415528,
      40.0281584838072
    ],
    "CODIGOESTACION": 9604,
    "DENOMINACION": "AV.LOYOLA-PZA.MATADERO",
    "LINEAS": [
      ""
    ]
  },
  {
    "coordinates": [
      -3.61541946603007,
      40.02810044881
    ],
    "CODIGOESTACION": 9605,
    "DENOMINACION": "AV.LOYOLA-PZA.PALOMA",
    "LINEAS": [
      ""
    ]
  },
  {
    "coordinates": [
      -3.61541857543895,
      40.028001347189
    ],
    "CODIGOESTACION": 9606,
    "DENOMINACION": "AV.LOYOLA-PZA.PALOMA",
    "LINEAS": [
      ""
    ]
  },
  {
    "coordinates": [
      -3.61743331898211,
      40.0278825071135
    ],
    "CODIGOESTACION": 9608,
    "DENOMINACION": "AV.LOYOLA-FRESNO",
    "LINEAS": [
      ""
    ]
  },
  {
    "coordinates": [
      -3.62142337884735,
      40.0238691698471
    ],
    "CODIGOESTACION": 9609,
    "DENOMINACION": "PºDELEITE-TARAY",
    "LINEAS": [
      ""
    ]
  },
  {
    "coordinates": [
      -3.61261018658894,
      40.0254802366512
    ],
    "CODIGOESTACION": 9613,
    "DENOMINACION": "PºDELEITE-CUESTA PERDICES",
    "LINEAS": [
      ""
    ]
  },
  {
    "coordinates": [
      -3.5986156522846,
      40.0290520557355
    ],
    "CODIGOESTACION": 9614,
    "DENOMINACION": "FOSO-NUESTRA SRA.AZUCENA",
    "LINEAS": [
      ""
    ]
  },
  {
    "coordinates": [
      -3.60893370848427,
      40.0312584143346
    ],
    "CODIGOESTACION": 9620,
    "DENOMINACION": "VALERAS-VERDERÓN",
    "LINEAS": [
      ""
    ]
  },
  {
    "coordinates": [
      -3.99248106254917,
      40.4563437600677
    ],
    "CODIGOESTACION": 17011,
    "DENOMINACION": "AV.ESPAÑA-PQUE.ACUÁTICO",
    "LINEAS": [
      "627",
      "669"
    ]
  },
  {
    "coordinates": [
      -3.90173790140529,
      40.3559773157521
    ],
    "CODIGOESTACION": 10568,
    "DENOMINACION": "AV.PRÍNCIPE ASTURIAS-SUPERMERCADO",
    "LINEAS": [
      "510",
      "518",
      "567",
      "581",
      "510A",
      "N504"
    ]
  },
  {
    "coordinates": [
      -3.90192510299612,
      40.3558857644381
    ],
    "CODIGOESTACION": 10569,
    "DENOMINACION": "AV.PPE.DE ASTURIAS-SUPERMERCADO",
    "LINEAS": [
      "510",
      "518",
      "567",
      "581",
      "510A",
      "N504"
    ]
  },
  {
    "coordinates": [
      -3.89992179506351,
      40.3540094480645
    ],
    "CODIGOESTACION": 10571,
    "DENOMINACION": "AV.PPE.ASTURIAS-VICENTE BLASCO IBÁÑEZ",
    "LINEAS": [
      "510",
      "518",
      "567",
      "510A",
      "N504"
    ]
  },
  {
    "coordinates": [
      -3.78372598952743,
      40.7469628310944
    ],
    "CODIGOESTACION": 18933,
    "DENOMINACION": "AV.VÍCTIMAS-POLIDEPORTIVO",
    "LINEAS": [
      "720",
      "725",
      "726"
    ]
  },
  {
    "coordinates": [
      -3.78238798362499,
      40.7528753916215
    ],
    "CODIGOESTACION": 18934,
    "DENOMINACION": "AV.VÍCTIMAS-CALVO SOTELO",
    "LINEAS": [
      "720",
      "725",
      "726"
    ]
  },
  {
    "coordinates": [
      -3.79751748648073,
      40.4179051885801
    ],
    "CODIGOESTACION": 10577,
    "DENOMINACION": "PºFINCA-EST.SOMOSAGUAS CENTRO",
    "LINEAS": [
      "562",
      "564",
      "658",
      "N902"
    ]
  },
  {
    "coordinates": [
      -3.80017684083223,
      40.414535458609
    ],
    "CODIGOESTACION": 10578,
    "DENOMINACION": "PºFINCA-PRADO DEL REY",
    "LINEAS": [
      "562",
      "564",
      "658",
      "N902"
    ]
  },
  {
    "coordinates": [
      -3.78240957070939,
      40.7526810688453
    ],
    "CODIGOESTACION": 18935,
    "DENOMINACION": "AV.VÍCTIMAS-CALVO SOTELO",
    "LINEAS": [
      "720",
      "725",
      "726"
    ]
  },
  {
    "coordinates": [
      -3.99309726418547,
      40.4561819120643
    ],
    "CODIGOESTACION": 18936,
    "DENOMINACION": "AV.ESPAÑA-PQUE.ACUÁTICO",
    "LINEAS": [
      "627"
    ]
  },
  {
    "coordinates": [
      -3.99715076687928,
      40.4548661006281
    ],
    "CODIGOESTACION": 17008,
    "DENOMINACION": "AV.MIRASIERRA-RONCESVALLES",
    "LINEAS": [
      "627"
    ]
  },
  {
    "coordinates": [
      -3.93825564182279,
      40.4816510311687
    ],
    "CODIGOESTACION": 10586,
    "DENOMINACION": "AV.CASTILLOS-CASTILLO CUÉLLAR",
    "LINEAS": [
      "623",
      "626",
      "627"
    ]
  },
  {
    "coordinates": [
      -3.93806676666492,
      40.4816435546296
    ],
    "CODIGOESTACION": 10587,
    "DENOMINACION": "AV.CASTILLOS-CASTILLO CUÉLLAR",
    "LINEAS": [
      "623",
      "626",
      "627"
    ]
  },
  {
    "coordinates": [
      -3.94199041346606,
      40.4770531372812
    ],
    "CODIGOESTACION": 10588,
    "DENOMINACION": "CASTILLO ANTEQUERA-CASTILLO PEÑAFIEL",
    "LINEAS": [
      "623",
      "626",
      "627"
    ]
  },
  {
    "coordinates": [
      -3.99706715879438,
      40.4547558055187
    ],
    "CODIGOESTACION": 17009,
    "DENOMINACION": "AV.MIRASIERRA-RONCESVALLES",
    "LINEAS": [
      "627"
    ]
  },
  {
    "coordinates": [
      -4.00423503435545,
      40.4551300875708
    ],
    "CODIGOESTACION": 17007,
    "DENOMINACION": "AV.DEHESA-MIGUEL DE UNAMUNO",
    "LINEAS": [
      "627"
    ]
  },
  {
    "coordinates": [
      -3.94854547198911,
      40.4666843146872
    ],
    "CODIGOESTACION": 10592,
    "DENOMINACION": "CASTILLO PONFERRADA-CASTILLO ATIENZA",
    "LINEAS": [
      "623"
    ]
  },
  {
    "coordinates": [
      -3.95354962624004,
      40.4668864019974
    ],
    "CODIGOESTACION": 10593,
    "DENOMINACION": "CASTILLO PONFERRADA-Nº34",
    "LINEAS": [
      "623"
    ]
  },
  {
    "coordinates": [
      -3.95353668776263,
      40.4668054288695
    ],
    "CODIGOESTACION": 10595,
    "DENOMINACION": "CASTILLO PONFERRADA-Nº35",
    "LINEAS": [
      "623"
    ]
  },
  {
    "coordinates": [
      -3.94820359682876,
      40.4665636595401
    ],
    "CODIGOESTACION": 10596,
    "DENOMINACION": "CASTILLO PONFERRADA-CASTILLO ATIENZA",
    "LINEAS": [
      "623"
    ]
  },
  {
    "coordinates": [
      -3.64387212757068,
      40.5451677972358
    ],
    "CODIGOESTACION": 10607,
    "DENOMINACION": "MARQUÉS VALDAVIA-AV.ESPAÑA",
    "LINEAS": [
      "827A"
    ]
  },
  {
    "coordinates": [
      -3.63417644689343,
      40.5461570523779
    ],
    "CODIGOESTACION": 10610,
    "DENOMINACION": "AV.ESPAÑA-EST.ALCOBENDAS S.SEB.REYES",
    "LINEAS": [
      "827A"
    ]
  },
  {
    "coordinates": [
      -4.00761041805669,
      40.7134641658914
    ],
    "CODIGOESTACION": 10987,
    "DENOMINACION": "CTRA.M861-PRESA DE NAVACERRADA",
    "LINEAS": [
      "690",
      "691",
      "696"
    ]
  },
  {
    "coordinates": [
      -4.01428279308619,
      40.7295308364023
    ],
    "CODIGOESTACION": 10988,
    "DENOMINACION": "CUARTEL-TRVA.SANTÍSIMO",
    "LINEAS": [
      "690",
      "691",
      "696"
    ]
  },
  {
    "coordinates": [
      -3.74681887745792,
      40.2551501022755
    ],
    "CODIGOESTACION": 16285,
    "DENOMINACION": "MOLINASECA-PALACIOS DEL SIL",
    "LINEAS": [
      "462",
      "471"
    ]
  },
  {
    "coordinates": [
      -3.75163311115263,
      40.2609119326816
    ],
    "CODIGOESTACION": 16289,
    "DENOMINACION": "VALTUÍLLE-BAÑEZA",
    "LINEAS": [
      "462",
      "471"
    ]
  },
  {
    "coordinates": [
      -3.7516188632532,
      40.2606867935636
    ],
    "CODIGOESTACION": 16290,
    "DENOMINACION": "VALTUÍLLE-BAÑEZA",
    "LINEAS": [
      "462",
      "471"
    ]
  },
  {
    "coordinates": [
      -3.56186319831865,
      40.4301864501598
    ],
    "CODIGOESTACION": 12329,
    "DENOMINACION": "AV.PLANTÍO-RECINTO FERIAL",
    "LINEAS": [
      "289"
    ]
  },
  {
    "coordinates": [
      -3.92024154273675,
      40.2796520214924
    ],
    "CODIGOESTACION": 16214,
    "DENOMINACION": "AV.UNIÓN EUROPEA-TORREVIEJA",
    "LINEAS": [
      "495",
      "498"
    ]
  },
  {
    "coordinates": [
      -3.52959689156202,
      41.0598840229979
    ],
    "CODIGOESTACION": 10328,
    "DENOMINACION": "MONTEJO DE LA SIERRA-PZA.FUENTE",
    "LINEAS": [
      "911",
      "912",
      "191C",
      "199A"
    ]
  },
  {
    "coordinates": [
      -3.89015248399318,
      40.3115061913105
    ],
    "CODIGOESTACION": 12337,
    "DENOMINACION": "AV.PORTUGAL-RESTAURANTE",
    "LINEAS": [
      "528",
      "529",
      "531",
      "529A",
      "529H",
      "531A"
    ]
  },
  {
    "coordinates": [
      -3.78429540469001,
      40.2827860804927
    ],
    "CODIGOESTACION": 10884,
    "DENOMINACION": "BRASIL-URUGUAY",
    "LINEAS": [
      "471",
      "492"
    ]
  },
  {
    "coordinates": [
      -3.78245941340903,
      40.4662513274486
    ],
    "CODIGOESTACION": 10888,
    "DENOMINACION": "LA SALLE-ESCUELA UNIVERSITARIA",
    "LINEAS": [
      "657",
      "815",
      "N901"
    ]
  },
  {
    "coordinates": [
      -3.47059254321159,
      40.4577155455703
    ],
    "CODIGOESTACION": 10896,
    "DENOMINACION": "AV.CONSTITUCIÓN-ROMA",
    "LINEAS": [
      "224",
      "824",
      "N202"
    ]
  },
  {
    "coordinates": [
      -3.73044867260623,
      40.4124018407055
    ],
    "CODIGOESTACION": 10900,
    "DENOMINACION": "SANTA ÚRSULA-ANTONIO ZAMORA",
    "LINEAS": [
      "500"
    ]
  },
  {
    "coordinates": [
      -3.75463557942236,
      40.2629868802723
    ],
    "CODIGOESTACION": 11219,
    "DENOMINACION": "VASCOS-POL.IND.LA TOCA",
    "LINEAS": [
      "462",
      "471"
    ]
  },
  {
    "coordinates": [
      -3.75449705086833,
      40.263121271135
    ],
    "CODIGOESTACION": 11220,
    "DENOMINACION": "VASCOS-POL.IND.LA TOCA",
    "LINEAS": [
      "462",
      "471"
    ]
  },
  {
    "coordinates": [
      -3.6586603798276,
      40.5201118709309
    ],
    "CODIGOESTACION": 11226,
    "DENOMINACION": "PZA.PARÍS-P.EMPRESARIAL LA MORALEJA",
    "LINEAS": [
      "154",
      "157",
      "157C"
    ]
  },
  {
    "coordinates": [
      -3.64132097605324,
      40.541416233633
    ],
    "CODIGOESTACION": 11230,
    "DENOMINACION": "PºCHOPERA-CÁDIZ",
    "LINEAS": [
      "157"
    ]
  },
  {
    "coordinates": [
      -3.65687217342253,
      40.5449506168527
    ],
    "CODIGOESTACION": 11231,
    "DENOMINACION": "PºCHOPERA-AV.CAMILO JOSÉ CELA",
    "LINEAS": [
      "157"
    ]
  },
  {
    "coordinates": [
      -3.86416225573148,
      40.4916967964948
    ],
    "CODIGOESTACION": 11234,
    "DENOMINACION": "CºTOMILLARÓN-URB.EL COTO",
    "LINEAS": [
      "626"
    ]
  },
  {
    "coordinates": [
      -3.86407862375147,
      40.4916163410834
    ],
    "CODIGOESTACION": 11235,
    "DENOMINACION": "CºTOMILLARÓN-URB.EL COTO",
    "LINEAS": [
      "626"
    ]
  },
  {
    "coordinates": [
      -3.86388886921432,
      40.4933835092601
    ],
    "CODIGOESTACION": 11237,
    "DENOMINACION": "SANTA MARÍA-PISTA POLIDEPORTIVA",
    "LINEAS": [
      "626"
    ]
  },
  {
    "coordinates": [
      -3.86624471962575,
      40.4948331514258
    ],
    "CODIGOESTACION": 11239,
    "DENOMINACION": "SANTA MARÍA-SANTA ISABEL",
    "LINEAS": [
      "626"
    ]
  },
  {
    "coordinates": [
      -3.59526131941084,
      40.7655957360132
    ],
    "CODIGOESTACION": 11241,
    "DENOMINACION": "CTRA.M122-LOS MELONARES",
    "LINEAS": [
      "191",
      "193",
      "197D"
    ]
  },
  {
    "coordinates": [
      -3.68867825271955,
      40.8636151482399
    ],
    "CODIGOESTACION": 12001,
    "DENOMINACION": "CTRA.M610-URB.LA PESQUERA",
    "LINEAS": [
      "725"
    ]
  },
  {
    "coordinates": [
      -4.40182239312623,
      40.3608667007721
    ],
    "CODIGOESTACION": 12195,
    "DENOMINACION": "CORREDERA ALTA-PLAZA DE TOROS",
    "LINEAS": [
      "551"
    ]
  },
  {
    "coordinates": [
      -3.74101976361765,
      40.340162469082
    ],
    "CODIGOESTACION": 9513,
    "DENOMINACION": "AV.BÉLGICA-CORREOS",
    "LINEAS": [
      "481",
      "497"
    ]
  },
  {
    "coordinates": [
      -3.74085858626663,
      40.3404968391466
    ],
    "CODIGOESTACION": 9514,
    "DENOMINACION": "AV.BÉLGICA-CORREOS",
    "LINEAS": [
      "481"
    ]
  },
  {
    "coordinates": [
      -3.82454174413749,
      40.3505227080497
    ],
    "CODIGOESTACION": 8502,
    "DENOMINACION": "AV.CANTARRANAS-LOS JUZGADOS",
    "LINEAS": [
      "513",
      "520"
    ]
  },
  {
    "coordinates": [
      -3.77322443458071,
      40.3239966313175
    ],
    "CODIGOESTACION": 9518,
    "DENOMINACION": "AV.ORELLANA-PZA.DE LA INMACULADA",
    "LINEAS": [
      "432"
    ]
  },
  {
    "coordinates": [
      -3.7730003278603,
      40.3231703582464
    ],
    "CODIGOESTACION": 9519,
    "DENOMINACION": "AV.PINOS-PZA.DE LA INMACULADA",
    "LINEAS": [
      "432"
    ]
  },
  {
    "coordinates": [
      -3.81595844909814,
      40.3499574181503
    ],
    "CODIGOESTACION": 8522,
    "DENOMINACION": "AV.ALCALDE JOSÉ ARANDA-PORTO CRISTO",
    "LINEAS": [
      "511",
      "520"
    ]
  },
  {
    "coordinates": [
      -3.81531763262071,
      40.3502980328622
    ],
    "CODIGOESTACION": 8504,
    "DENOMINACION": "AV.ALCALDE JOSÉ ARANDA-PORTO CRISTO",
    "LINEAS": [
      "511",
      "520"
    ]
  },
  {
    "coordinates": [
      -3.8131175279645,
      40.3527894957364
    ],
    "CODIGOESTACION": 8513,
    "DENOMINACION": "AV.ALCALDE JOSÉ ARANDA-CARBALLINO",
    "LINEAS": [
      "520"
    ]
  },
  {
    "coordinates": [
      -3.81267585718943,
      40.352592367324
    ],
    "CODIGOESTACION": 8509,
    "DENOMINACION": "AV.ALCALDE JOSÉ ARANDA-AMPURIAS",
    "LINEAS": [
      "511",
      "520"
    ]
  },
  {
    "coordinates": [
      -3.26197046918023,
      40.4269094793967
    ],
    "CODIGOESTACION": 9528,
    "DENOMINACION": "CORPA-PZA.ESPAÑA",
    "LINEAS": [
      "271",
      "272"
    ]
  },
  {
    "coordinates": [
      -3.2997961111221,
      40.4179952761943
    ],
    "CODIGOESTACION": 9530,
    "DENOMINACION": "VALVERDE DE ALCALÁ-CTRA.DE TORRES",
    "LINEAS": [
      "232"
    ]
  },
  {
    "coordinates": [
      -3.46453212548668,
      40.5411766379608
    ],
    "CODIGOESTACION": 9532,
    "DENOMINACION": "CTRA.AJALVIR-POL.IND.GITESA",
    "LINEAS": [
      "251",
      "252",
      "254",
      "256"
    ]
  },
  {
    "coordinates": [
      -3.80801749863754,
      40.4354720652013
    ],
    "CODIGOESTACION": 9481,
    "DENOMINACION": "PORTUGAL-OPORTO",
    "LINEAS": [
      "657",
      "657A",
      "N902"
    ]
  },
  {
    "coordinates": [
      -3.81459614384953,
      40.354133512961
    ],
    "CODIGOESTACION": 8527,
    "DENOMINACION": "CARBALLINO-TUY",
    "LINEAS": [
      "511",
      "520"
    ]
  },
  {
    "coordinates": [
      -3.70936208924771,
      40.6051621259304
    ],
    "CODIGOESTACION": 11110,
    "DENOMINACION": "AV.PARQUE-CANELA",
    "LINEAS": [
      "713"
    ]
  },
  {
    "coordinates": [
      -3.70370372306416,
      40.5953320591917
    ],
    "CODIGOESTACION": 11111,
    "DENOMINACION": "BOLILLERO-MAR DEL NORTE",
    "LINEAS": [
      "713"
    ]
  },
  {
    "coordinates": [
      -3.71215787914736,
      40.6070133345958
    ],
    "CODIGOESTACION": 11112,
    "DENOMINACION": "AV.PARQUE-CENTRO DE SALUD",
    "LINEAS": [
      "713"
    ]
  },
  {
    "coordinates": [
      -3.71235685957776,
      40.6066842260528
    ],
    "CODIGOESTACION": 11113,
    "DENOMINACION": "AV.PARQUE-CENTRO DE SALUD",
    "LINEAS": [
      "713"
    ]
  },
  {
    "coordinates": [
      -3.69454349602606,
      40.6123689684633
    ],
    "CODIGOESTACION": 11115,
    "DENOMINACION": "RONDA VALDECARRIZO-BATANES",
    "LINEAS": [
      "716",
      "N701"
    ]
  },
  {
    "coordinates": [
      -3.68974154546536,
      40.6121714849226
    ],
    "CODIGOESTACION": 11116,
    "DENOMINACION": "ALAMEDA BAJA-DESPEÑAPERROS",
    "LINEAS": [
      "716"
    ]
  },
  {
    "coordinates": [
      -3.81503349255819,
      40.3537109058144
    ],
    "CODIGOESTACION": 8510,
    "DENOMINACION": "CARBALLINO-AV.DERECHOS HUMANOS",
    "LINEAS": [
      "511"
    ]
  },
  {
    "coordinates": [
      -3.68869220928306,
      40.610377518973
    ],
    "CODIGOESTACION": 11118,
    "DENOMINACION": "PºCARRIZAL-ORDUÑA",
    "LINEAS": [
      "716"
    ]
  },
  {
    "coordinates": [
      -3.81278839233104,
      40.3444770708436
    ],
    "CODIGOESTACION": 8515,
    "DENOMINACION": "OLÍMPICO FCO.FDEZ.OCHOA-SAPPORO",
    "LINEAS": [
      "511"
    ]
  },
  {
    "coordinates": [
      -4.01857955288485,
      40.5605732644029
    ],
    "CODIGOESTACION": 11122,
    "DENOMINACION": "CTRA.VALDEMORILLO-IGLESIA",
    "LINEAS": [
      "630"
    ]
  },
  {
    "coordinates": [
      -3.8227014728651,
      40.3437203402792
    ],
    "CODIGOESTACION": 8538,
    "DENOMINACION": "POLVORANCA-AV.ALCALDE JOSÉ ARANDA",
    "LINEAS": [
      "513",
      "520"
    ]
  },
  {
    "coordinates": [
      -3.81600545833254,
      40.3569221815335
    ],
    "CODIGOESTACION": 8544,
    "DENOMINACION": "SAHAGÚN-EST.SAN JOSÉ DE VALDERAS",
    "LINEAS": [
      "520"
    ]
  },
  {
    "coordinates": [
      -3.51218807020234,
      40.4742125087482
    ],
    "CODIGOESTACION": 11013,
    "DENOMINACION": "AV.PTE.LOS VIVEROS-PºPAGO DE LA PERDIZ",
    "LINEAS": [
      ""
    ]
  },
  {
    "coordinates": [
      -3.97761639917096,
      40.4272441665601
    ],
    "CODIGOESTACION": 11017,
    "DENOMINACION": "RONDA DE LA RAYA-ORQUÍDEAS",
    "LINEAS": [
      "626"
    ]
  },
  {
    "coordinates": [
      -3.8573824261378,
      40.3315366668746
    ],
    "CODIGOESTACION": 9702,
    "DENOMINACION": "AV.ALCALDE DE MÓSTOLES-BÉCQUER",
    "LINEAS": [
      "521",
      "523",
      "526",
      "529",
      "531",
      "545",
      "529A",
      "529H",
      "531A",
      "N503"
    ]
  },
  {
    "coordinates": [
      -3.60041568666826,
      40.7937528260342
    ],
    "CODIGOESTACION": 11022,
    "DENOMINACION": "AV.MONTERREY-AV.GUADARRAMA",
    "LINEAS": [
      "191",
      "193A"
    ]
  },
  {
    "coordinates": [
      -4.5161926598646,
      40.2627558413404
    ],
    "CODIGOESTACION": 11024,
    "DENOMINACION": "CTRA.M545-URB.LOS ALMENDROS",
    "LINEAS": [
      "545",
      "546"
    ]
  },
  {
    "coordinates": [
      -3.85869145675718,
      40.3271185261102
    ],
    "CODIGOESTACION": 8552,
    "DENOMINACION": "BALEARES-BADAJOZ",
    "LINEAS": [
      "520",
      "521"
    ]
  },
  {
    "coordinates": [
      -3.37734879751324,
      40.5486219044668
    ],
    "CODIGOESTACION": 11029,
    "DENOMINACION": "CAMARMA DE ESTERUELAS-AYUNTAMIENTO",
    "LINEAS": [
      "251",
      "255"
    ]
  },
  {
    "coordinates": [
      -3.85745109201161,
      40.3261228232161
    ],
    "CODIGOESTACION": 8553,
    "DENOMINACION": "BALEARES-ÁVILA",
    "LINEAS": [
      ""
    ]
  },
  {
    "coordinates": [
      -3.69477599015186,
      40.6119892037394
    ],
    "CODIGOESTACION": 11036,
    "DENOMINACION": "BATANES-RONDA VALDECARRIZO",
    "LINEAS": [
      "723"
    ]
  },
  {
    "coordinates": [
      -3.85887212641558,
      40.3243513870163
    ],
    "CODIGOESTACION": 8555,
    "DENOMINACION": "BARCELONA-SAN MARCIAL",
    "LINEAS": [
      "520",
      "521"
    ]
  },
  {
    "coordinates": [
      -4.04588427361677,
      40.5928957635908
    ],
    "CODIGOESTACION": 11387,
    "DENOMINACION": "PRINCIPAL-VEINTICUATRO",
    "LINEAS": [
      "661A"
    ]
  },
  {
    "coordinates": [
      -3.85837789130215,
      40.3205726549392
    ],
    "CODIGOESTACION": 8558,
    "DENOMINACION": "SIMÓN HERNÁNDEZ-LAS PALMAS",
    "LINEAS": [
      "526",
      "527"
    ]
  },
  {
    "coordinates": [
      -4.04712397425125,
      40.6087307580747
    ],
    "CODIGOESTACION": 11390,
    "DENOMINACION": "EST.LAS ZORRERAS",
    "LINEAS": [
      "661A"
    ]
  },
  {
    "coordinates": [
      -3.7753017418766,
      40.6548064618398
    ],
    "CODIGOESTACION": 11341,
    "DENOMINACION": "PºREDONDILLO-EL PORTACHUELO",
    "LINEAS": [
      "610",
      "722",
      "723",
      "N702"
    ]
  },
  {
    "coordinates": [
      -4.04706741108758,
      40.60889342515
    ],
    "CODIGOESTACION": 11391,
    "DENOMINACION": "EST.LAS ZORRERAS",
    "LINEAS": [
      "661A"
    ]
  },
  {
    "coordinates": [
      -3.85834871260413,
      40.3207278087738
    ],
    "CODIGOESTACION": 10876,
    "DENOMINACION": "SIMÓN HERNÁNDEZ-LAS PALMAS",
    "LINEAS": [
      "520",
      "521",
      "526",
      "527"
    ]
  },
  {
    "coordinates": [
      -3.86112503489801,
      40.3214124741321
    ],
    "CODIGOESTACION": 8585,
    "DENOMINACION": "SIMÓN HERNÁNDEZ-CARTAYA",
    "LINEAS": [
      "526",
      "527"
    ]
  },
  {
    "coordinates": [
      -3.86106780709852,
      40.3215654554027
    ],
    "CODIGOESTACION": 8559,
    "DENOMINACION": "SIMÓN HERNÁNDEZ-MARIBLANCA",
    "LINEAS": [
      "520",
      "521",
      "526",
      "527"
    ]
  },
  {
    "coordinates": [
      -3.85419473272248,
      40.319267125816
    ],
    "CODIGOESTACION": 8561,
    "DENOMINACION": "SIMÓN HERNÁNDEZ-AV.FELIPE II",
    "LINEAS": [
      "526",
      "527"
    ]
  },
  {
    "coordinates": [
      -3.85433344489002,
      40.3191540691802
    ],
    "CODIGOESTACION": 8590,
    "DENOMINACION": "SIMÓN HERNÁNDEZ-AV.FELIPE II",
    "LINEAS": [
      "526",
      "527"
    ]
  },
  {
    "coordinates": [
      -3.37638838844858,
      40.4932799141845
    ],
    "CODIGOESTACION": 11405,
    "DENOMINACION": "ALEJO CARPENTIER-INSTITUTO",
    "LINEAS": [
      ""
    ]
  },
  {
    "coordinates": [
      -3.3746278151351,
      40.4946485522042
    ],
    "CODIGOESTACION": 11407,
    "DENOMINACION": "DÁMASO ALONSO-GTA.JACINTO BENAVENTE",
    "LINEAS": [
      ""
    ]
  },
  {
    "coordinates": [
      -3.37481632538868,
      40.4945938896921
    ],
    "CODIGOESTACION": 11408,
    "DENOMINACION": "DÁMASO ALONSO-GTA.JACINTO BENAVENTE",
    "LINEAS": [
      ""
    ]
  },
  {
    "coordinates": [
      -3.88208069274136,
      40.4425437345747
    ],
    "CODIGOESTACION": 11281,
    "DENOMINACION": "PLAYA DEL SARDINERO-GTA.ALCALDE DE FABRA",
    "LINEAS": [
      ""
    ]
  },
  {
    "coordinates": [
      -3.69475539463442,
      40.2475548769723
    ],
    "CODIGOESTACION": 11283,
    "DENOMINACION": "CATALUÑA-ARAGÓN",
    "LINEAS": [
      "421",
      "428",
      "471",
      "N401"
    ]
  },
  {
    "coordinates": [
      -3.87112745128579,
      40.2107937734687
    ],
    "CODIGOESTACION": 11286,
    "DENOMINACION": "CTRA.M404-BREZO",
    "LINEAS": [
      "460",
      "468"
    ]
  },
  {
    "coordinates": [
      -3.78556075939721,
      40.4519870778907
    ],
    "CODIGOESTACION": 11291,
    "DENOMINACION": "ARROYO POZUELO-GTA.SIERRA PARAMERA",
    "LINEAS": [
      "658"
    ]
  },
  {
    "coordinates": [
      -3.63839142991147,
      40.9896330329955
    ],
    "CODIGOESTACION": 11293,
    "DENOMINACION": "AV.MADRID-CENTRO DE ESTUDIOS",
    "LINEAS": [
      "191",
      "196",
      "191D",
      "191E",
      "194A",
      "195A",
      "199A"
    ]
  },
  {
    "coordinates": [
      -3.62445693664403,
      40.8072120733881
    ],
    "CODIGOESTACION": 11294,
    "DENOMINACION": "VENTURADA-URB.TOLLE LEGE",
    "LINEAS": [
      "191",
      "193",
      "194",
      "195",
      "196"
    ]
  },
  {
    "coordinates": [
      -3.6246349766844,
      40.8064785018484
    ],
    "CODIGOESTACION": 11295,
    "DENOMINACION": "VENTURADA-URB.TOLLE LEGE",
    "LINEAS": [
      "191",
      "193",
      "194",
      "195",
      "196"
    ]
  },
  {
    "coordinates": [
      -4.37025594015701,
      40.2890271910854
    ],
    "CODIGOESTACION": 99986,
    "DENOMINACION": "CTRA.M507-CRUCE ALMOROX",
    "LINEAS": [
      "545",
      "546"
    ]
  },
  {
    "coordinates": [
      -3.99001671048135,
      40.6451774925908
    ],
    "CODIGOESTACION": 12940,
    "DENOMINACION": "EXTREMADURA-AYUNTAMIENTO",
    "LINEAS": [
      ""
    ]
  },
  {
    "coordinates": [
      -3.45961589200646,
      40.4458920101735
    ],
    "CODIGOESTACION": 12941,
    "DENOMINACION": "HILADOS-COMISARÍA",
    "LINEAS": [
      ""
    ]
  },
  {
    "coordinates": [
      -3.45927366379238,
      40.4441185662634
    ],
    "CODIGOESTACION": 12942,
    "DENOMINACION": "ÁLAMO-COLEGIO",
    "LINEAS": [
      ""
    ]
  },
  {
    "coordinates": [
      -3.45870913091128,
      40.4443370189091
    ],
    "CODIGOESTACION": 12945,
    "DENOMINACION": "ÁLAMO-COLEGIO",
    "LINEAS": [
      ""
    ]
  },
  {
    "coordinates": [
      -3.71908236786217,
      40.4341919972599
    ],
    "CODIGOESTACION": 11980,
    "DENOMINACION": "PRINCESA-MONCLOA",
    "LINEAS": [
      "573",
      "611",
      "612",
      "614",
      "615",
      "682",
      "684",
      "691",
      "N602",
      "N901",
      "N905"
    ]
  },
  {
    "coordinates": [
      -4.23026200018646,
      40.276052522164
    ],
    "CODIGOESTACION": 12947,
    "DENOMINACION": "URB.CALALBERCHE-ENTRADA",
    "LINEAS": [
      "548"
    ]
  },
  {
    "coordinates": [
      -3.30200412507954,
      40.2478277029221
    ],
    "CODIGOESTACION": 12958,
    "DENOMINACION": "CTRAM.204-HUERTA DEL PAVO",
    "LINEAS": [
      "322",
      "326"
    ]
  },
  {
    "coordinates": [
      -3.24161572839976,
      40.2475810926917
    ],
    "CODIGOESTACION": 12961,
    "DENOMINACION": "CTRA.M204-CASA DE LA LUZ",
    "LINEAS": [
      "322",
      "326"
    ]
  },
  {
    "coordinates": [
      -3.3683411846341,
      40.406704232365
    ],
    "CODIGOESTACION": 12962,
    "DENOMINACION": "CTRA.M225-GTA.LAS CONEJERAS",
    "LINEAS": [
      "261",
      "320"
    ]
  },
  {
    "coordinates": [
      -3.51074352119264,
      40.6462800952625
    ],
    "CODIGOESTACION": 12082,
    "DENOMINACION": "CTRA.M103-POL.IND.LA CUESTA",
    "LINEAS": [
      "197"
    ]
  },
  {
    "coordinates": [
      -3.61398130641336,
      40.6769485673501
    ],
    "CODIGOESTACION": 12097,
    "DENOMINACION": "AV.MADRID-RESIDENCIAL GUADALIX",
    "LINEAS": [
      "191",
      "193",
      "194",
      "195",
      "196",
      "727"
    ]
  },
  {
    "coordinates": [
      -3.47954850384323,
      40.5045684738948
    ],
    "CODIGOESTACION": 12099,
    "DENOMINACION": "CTRA.M108-TESTIGOS DE JEHOVÁ",
    "LINEAS": [
      "251",
      "252"
    ]
  },
  {
    "coordinates": [
      -3.48003045858569,
      40.5051514448319
    ],
    "CODIGOESTACION": 12100,
    "DENOMINACION": "CTRA.M108-TESTIGOS DE JEHOVÁ",
    "LINEAS": [
      "251",
      "252"
    ]
  },
  {
    "coordinates": [
      -3.60325540573281,
      40.0303260034967
    ],
    "CODIGOESTACION": 9622,
    "DENOMINACION": "ALMÍBAR-LA NARANJA",
    "LINEAS": [
      "N402"
    ]
  },
  {
    "coordinates": [
      -3.60140283143927,
      40.0281380440294
    ],
    "CODIGOESTACION": 9626,
    "DENOMINACION": "AV.PLAZA DE TOROS-CONCHA",
    "LINEAS": [
      ""
    ]
  },
  {
    "coordinates": [
      -3.88033968044601,
      40.367403325018
    ],
    "CODIGOESTACION": 11688,
    "DENOMINACION": "BELLAS VISTAS-LA MESETA",
    "LINEAS": [
      "510"
    ]
  },
  {
    "coordinates": [
      -3.60051403965284,
      40.0323681919239
    ],
    "CODIGOESTACION": 9583,
    "DENOMINACION": "REY-AUDITORIO",
    "LINEAS": [
      ""
    ]
  },
  {
    "coordinates": [
      -3.59810979943704,
      40.0322519273984
    ],
    "CODIGOESTACION": 9584,
    "DENOMINACION": "FOSO-GOBERNADOR",
    "LINEAS": [
      ""
    ]
  },
  {
    "coordinates": [
      -3.90363827728812,
      40.3529924414845
    ],
    "CODIGOESTACION": 11710,
    "DENOMINACION": "AV.CATALIFA-ORQUÍDEA",
    "LINEAS": [
      "519",
      "519A"
    ]
  },
  {
    "coordinates": [
      -3.62475018628066,
      40.1629953097737
    ],
    "CODIGOESTACION": 9539,
    "DENOMINACION": "ESTRELLAS-AV.MADRID",
    "LINEAS": [
      "410",
      "425",
      "426",
      "N402"
    ]
  },
  {
    "coordinates": [
      -3.90334628847759,
      40.3529935288174
    ],
    "CODIGOESTACION": 12004,
    "DENOMINACION": "AV.CALATALIFA-SAN LORENZO",
    "LINEAS": [
      "519",
      "519A"
    ]
  },
  {
    "coordinates": [
      -3.97804644868803,
      40.4300783629332
    ],
    "CODIGOESTACION": 11962,
    "DENOMINACION": "RONDA DE LA RAYA-ÁGUILAS",
    "LINEAS": [
      "626"
    ]
  },
  {
    "coordinates": [
      -3.97788155244784,
      40.4300887650278
    ],
    "CODIGOESTACION": 11963,
    "DENOMINACION": "RONDA DE LA RAYA-ÁGUILAS",
    "LINEAS": [
      "626"
    ]
  },
  {
    "coordinates": [
      -3.80423032056503,
      40.3479077594117
    ],
    "CODIGOESTACION": 11764,
    "DENOMINACION": "AV.DEL PINAR-VIÑAGRANDE",
    "LINEAS": [
      "514"
    ]
  },
  {
    "coordinates": [
      -3.97631526595698,
      40.4253092153173
    ],
    "CODIGOESTACION": 11965,
    "DENOMINACION": "TRVA.SEÑUELO-RONDA DE LA RAYA",
    "LINEAS": [
      "626"
    ]
  },
  {
    "coordinates": [
      -3.52864390736698,
      40.5046436375674
    ],
    "CODIGOESTACION": 11966,
    "DENOMINACION": "PºRADAR-MURCIA",
    "LINEAS": [
      "210",
      "212"
    ]
  },
  {
    "coordinates": [
      -3.52857709294381,
      40.5041975729213
    ],
    "CODIGOESTACION": 11967,
    "DENOMINACION": "PºRADAR-AV.TORREJÓN DE ARDOZ",
    "LINEAS": [
      "210",
      "212"
    ]
  },
  {
    "coordinates": [
      -3.99787957694306,
      40.2906488847884
    ],
    "CODIGOESTACION": 11971,
    "DENOMINACION": "DEHESA DE MARI MARTÍN-PºALPARRACHE",
    "LINEAS": [
      "535",
      "537",
      "VAC082"
    ]
  },
  {
    "coordinates": [
      -3.8450711928987,
      40.3507331646164
    ],
    "CODIGOESTACION": 12005,
    "DENOMINACION": "AV.EUROPA-UNIVERSIDAD",
    "LINEAS": [
      ""
    ]
  },
  {
    "coordinates": [
      -3.78946360530843,
      40.3954016572052
    ],
    "CODIGOESTACION": 11977,
    "DENOMINACION": "JOSÉ ISBERT-EST.JOSÉ ISBERT",
    "LINEAS": [
      "572",
      "N905"
    ]
  },
  {
    "coordinates": [
      -3.80549850938202,
      40.356056643335
    ],
    "CODIGOESTACION": 11769,
    "DENOMINACION": "NARDOS-PARQUE DE LOS CASTILLOS",
    "LINEAS": [
      ""
    ]
  },
  {
    "coordinates": [
      -3.84381830322269,
      40.4142434836544
    ],
    "CODIGOESTACION": 11979,
    "DENOMINACION": "AV.MONTEPRÍNCIPE-HOSPITAL MONTEPRINCIPE",
    "LINEAS": [
      "566",
      "571",
      "573",
      "N905"
    ]
  },
  {
    "coordinates": [
      -3.80559095505144,
      40.3562323931352
    ],
    "CODIGOESTACION": 11768,
    "DENOMINACION": "NARDOS-TULIPANES",
    "LINEAS": [
      ""
    ]
  },
  {
    "coordinates": [
      -3.67388140197516,
      40.1865858379268
    ],
    "CODIGOESTACION": 11984,
    "DENOMINACION": "PºENRIQUE TIERNO GALVÁN-COLEGIO",
    "LINEAS": [
      ""
    ]
  },
  {
    "coordinates": [
      -3.6732019012346,
      40.1868615357099
    ],
    "CODIGOESTACION": 11985,
    "DENOMINACION": "PºENRIQUE TIERNO GALVÁN-COLEGIO",
    "LINEAS": [
      "N401"
    ]
  },
  {
    "coordinates": [
      -3.67907095237215,
      40.1851410636312
    ],
    "CODIGOESTACION": 11986,
    "DENOMINACION": "AV.MAR MEDITERRÁNEO-CENTRO COMERCIAL",
    "LINEAS": [
      "424"
    ]
  },
  {
    "coordinates": [
      -4.2348355848448,
      40.5076912925954
    ],
    "CODIGOESTACION": 11945,
    "DENOMINACION": "CTRA.M512-URB.CERRILLO DEL CARMEN",
    "LINEAS": [
      "640",
      "640A"
    ]
  },
  {
    "coordinates": [
      -4.23375530607816,
      40.5068744617138
    ],
    "CODIGOESTACION": 11946,
    "DENOMINACION": "CTRA.M521-CAPILLA",
    "LINEAS": [
      "645"
    ]
  },
  {
    "coordinates": [
      -3.68151628876839,
      40.1837293872354
    ],
    "CODIGOESTACION": 11989,
    "DENOMINACION": "AV.MAR MEDITERRÁNEO-OLIMPO",
    "LINEAS": [
      "424",
      "N401"
    ]
  },
  {
    "coordinates": [
      -3.68610373585999,
      40.1789552242824
    ],
    "CODIGOESTACION": 11992,
    "DENOMINACION": "AV.MAR MEDITERRÁNEO-MINERVA",
    "LINEAS": [
      "424"
    ]
  },
  {
    "coordinates": [
      -3.68421021747755,
      40.1769878274361
    ],
    "CODIGOESTACION": 11993,
    "DENOMINACION": "AV.MAR ADRIÁTICO-COLEGIO",
    "LINEAS": [
      "424",
      "N401"
    ]
  },
  {
    "coordinates": [
      -3.68089815943142,
      40.1793504239943
    ],
    "CODIGOESTACION": 11994,
    "DENOMINACION": "APOLO-JÚPITER",
    "LINEAS": [
      "424",
      "N401"
    ]
  },
  {
    "coordinates": [
      -3.7177725564468,
      40.8583673084103
    ],
    "CODIGOESTACION": 11998,
    "DENOMINACION": "BUSTARVIEJO-ARROYO FLORES",
    "LINEAS": [
      "725"
    ]
  },
  {
    "coordinates": [
      -3.83451100022835,
      40.3495657811006
    ],
    "CODIGOESTACION": 11770,
    "DENOMINACION": "BUDAPEST-HOSPITAL FUNDACIÓN ALCORCÓN",
    "LINEAS": [
      "510",
      "516",
      "551",
      "510A",
      "N502"
    ]
  },
  {
    "coordinates": [
      -3.53108825658771,
      40.3587294756203
    ],
    "CODIGOESTACION": 11622,
    "DENOMINACION": "ENCINA VERDE-MORERAS",
    "LINEAS": [
      ""
    ]
  },
  {
    "coordinates": [
      -3.8371927951258,
      40.3379677565256
    ],
    "CODIGOESTACION": 11776,
    "DENOMINACION": "ABEDULES-SAUCES",
    "LINEAS": [
      ""
    ]
  },
  {
    "coordinates": [
      -3.83825738344594,
      40.334908189714
    ],
    "CODIGOESTACION": 11778,
    "DENOMINACION": "SAUCES-HAYAS",
    "LINEAS": [
      ""
    ]
  },
  {
    "coordinates": [
      -3.3512435453115,
      40.445692302284
    ],
    "CODIGOESTACION": 11497,
    "DENOMINACION": "MAYOR-URB.LA ALCAZABA",
    "LINEAS": [
      "232",
      "320"
    ]
  },
  {
    "coordinates": [
      -3.92381936554684,
      40.5740268676852
    ],
    "CODIGOESTACION": 12231,
    "DENOMINACION": "PºJOAQUÍN R.JIMÉNEZ-LOS ALMENDROS",
    "LINEAS": [
      "614",
      "686",
      "611A"
    ]
  },
  {
    "coordinates": [
      -3.64402575727978,
      40.527896845747
    ],
    "CODIGOESTACION": 12236,
    "DENOMINACION": "CALÉNDULA-RESIDENCIAL MINIPARK",
    "LINEAS": [
      "159",
      "N102"
    ]
  },
  {
    "coordinates": [
      -3.64405996849883,
      40.5277705297145
    ],
    "CODIGOESTACION": 12237,
    "DENOMINACION": "CALÉNDULA-RESIDENCIAL MINIPARK",
    "LINEAS": [
      "159",
      "N101",
      "N102"
    ]
  },
  {
    "coordinates": [
      -3.64646509723786,
      40.5261895715665
    ],
    "CODIGOESTACION": 12238,
    "DENOMINACION": "CALÉNDULA-YUCA",
    "LINEAS": [
      "159",
      "N102"
    ]
  },
  {
    "coordinates": [
      -3.6462635407962,
      40.5261006056379
    ],
    "CODIGOESTACION": 12239,
    "DENOMINACION": "CALÉNDULA-YUCA",
    "LINEAS": [
      "159",
      "N101",
      "N102"
    ]
  },
  {
    "coordinates": [
      -3.63638197125084,
      40.5311102572845
    ],
    "CODIGOESTACION": 12241,
    "DENOMINACION": "NARDO-CENTRO CÍVICO",
    "LINEAS": [
      ""
    ]
  },
  {
    "coordinates": [
      -3.80363862139244,
      40.3532918806116
    ],
    "CODIGOESTACION": 11818,
    "DENOMINACION": "AV.LIBERTAD-LIRIOS",
    "LINEAS": [
      ""
    ]
  },
  {
    "coordinates": [
      -3.80385138266597,
      40.353480282456
    ],
    "CODIGOESTACION": 11819,
    "DENOMINACION": "AV.LIBERTAD-LIRIOS",
    "LINEAS": [
      ""
    ]
  },
  {
    "coordinates": [
      -3.36333922476935,
      40.4889546661967
    ],
    "CODIGOESTACION": 12244,
    "DENOMINACION": "ISABEL DE GUZMÁN-FERRAZ",
    "LINEAS": [
      ""
    ]
  },
  {
    "coordinates": [
      -3.3637471383129,
      40.4923948619273
    ],
    "CODIGOESTACION": 12246,
    "DENOMINACION": "AV.ALCARRIA-BELVÍS DEL JARAMA",
    "LINEAS": [
      ""
    ]
  },
  {
    "coordinates": [
      -3.36271074610076,
      40.4949747031159
    ],
    "CODIGOESTACION": 12247,
    "DENOMINACION": "AV.ALCARRIA-PZA.PAZ",
    "LINEAS": [
      ""
    ]
  },
  {
    "coordinates": [
      -3.3665975219405,
      40.4950155510898
    ],
    "CODIGOESTACION": 12248,
    "DENOMINACION": "AV.MIGUEL DE UNAMUNO-AV.JESUITAS",
    "LINEAS": [
      ""
    ]
  },
  {
    "coordinates": [
      -3.8372601571381,
      40.351549431122
    ],
    "CODIGOESTACION": 11822,
    "DENOMINACION": "VIENA-CEMENTERIO",
    "LINEAS": [
      "516"
    ]
  },
  {
    "coordinates": [
      -3.60266904885252,
      40.0348526749753
    ],
    "CODIGOESTACION": 12207,
    "DENOMINACION": "ALMÍBAR-INFANTAS",
    "LINEAS": [
      "N402"
    ]
  },
  {
    "coordinates": [
      -3.36671034799431,
      40.5014053512183
    ],
    "CODIGOESTACION": 12257,
    "DENOMINACION": "JOSÉ MªPEREDA-PZA.JOSÉ ESPRONCEDA",
    "LINEAS": [
      ""
    ]
  },
  {
    "coordinates": [
      -3.3693406793675,
      40.505586397069
    ],
    "CODIGOESTACION": 12258,
    "DENOMINACION": "AV.BENITO PÉREZ GALDÓS-PÍO BAROJA",
    "LINEAS": [
      "227"
    ]
  },
  {
    "coordinates": [
      -3.36956144406856,
      40.5054116890846
    ],
    "CODIGOESTACION": 12259,
    "DENOMINACION": "AV.BENITO PÉREZ GALDÓS-PZA.ALFONSO XII",
    "LINEAS": [
      "227"
    ]
  },
  {
    "coordinates": [
      -3.36923675707593,
      40.5094410702091
    ],
    "CODIGOESTACION": 12260,
    "DENOMINACION": "AV.BENITO P.GALDÓS-LEOPOLDO ALAS CLARÍN",
    "LINEAS": [
      "227"
    ]
  },
  {
    "coordinates": [
      -3.83725920757899,
      40.3512093932371
    ],
    "CODIGOESTACION": 11823,
    "DENOMINACION": "VIENA-BUDAPEST",
    "LINEAS": [
      "516",
      "N502"
    ]
  },
  {
    "coordinates": [
      -4.00999526471259,
      40.3052836040822
    ],
    "CODIGOESTACION": 11842,
    "DENOMINACION": "CTRA.M600-CEMENTERIO",
    "LINEAS": [
      "530",
      "531",
      "531A"
    ]
  },
  {
    "coordinates": [
      -4.00971887923479,
      40.3055410678939
    ],
    "CODIGOESTACION": 11841,
    "DENOMINACION": "CTRA.M600-CEMENTERIO",
    "LINEAS": [
      "528",
      "530",
      "531",
      "531A"
    ]
  },
  {
    "coordinates": [
      -3.81603150546021,
      40.3415232518196
    ],
    "CODIGOESTACION": 11883,
    "DENOMINACION": "OLÍMPICO FCO.FDEZ.OCHOA-CAMPOS DE LA HUERTA",
    "LINEAS": [
      "511"
    ]
  },
  {
    "coordinates": [
      -3.86281769889969,
      40.337160754882
    ],
    "CODIGOESTACION": 11884,
    "DENOMINACION": "MARGARITA-AV.ALCALDE DE MOSTOLES",
    "LINEAS": [
      "523",
      "529",
      "531",
      "529A",
      "531A",
      "N503"
    ]
  },
  {
    "coordinates": [
      -3.86752574716461,
      40.4688068969913
    ],
    "CODIGOESTACION": 12271,
    "DENOMINACION": "AV.ESPAÑA-LOS OLMOS",
    "LINEAS": [
      "561",
      "567",
      "626",
      "654",
      "655",
      "685",
      "561A"
    ]
  },
  {
    "coordinates": [
      -3.8630695932121,
      40.3372506486515
    ],
    "CODIGOESTACION": 11885,
    "DENOMINACION": "MARGARITA-CRISANTEMO",
    "LINEAS": [
      "521",
      "523",
      "529",
      "531",
      "529A",
      "531A",
      "N503"
    ]
  },
  {
    "coordinates": [
      -3.84991476623788,
      40.3233233054219
    ],
    "CODIGOESTACION": 11886,
    "DENOMINACION": "AV.CARLOS V-INSTITUTO",
    "LINEAS": [
      "523",
      "N503"
    ]
  },
  {
    "coordinates": [
      -3.83413492484555,
      40.3487813733294
    ],
    "CODIGOESTACION": 11925,
    "DENOMINACION": "BERLÍN-HOSPITAL FUNDACIÓN ALCORCÓN",
    "LINEAS": [
      "520",
      "535",
      "541",
      "545",
      "546",
      "547",
      "548"
    ]
  },
  {
    "coordinates": [
      -3.83451006812984,
      40.3488859358217
    ],
    "CODIGOESTACION": 11926,
    "DENOMINACION": "BERLÍN-HOSPITAL FUNDACIÓN ALCORCÓN",
    "LINEAS": [
      "510",
      "520",
      "535",
      "541",
      "545",
      "546",
      "547",
      "548"
    ]
  },
  {
    "coordinates": [
      -3.99777996371474,
      40.2908606970503
    ],
    "CODIGOESTACION": 11970,
    "DENOMINACION": "DEHESA DE MARI MARTÍN-PºALPARRACHE",
    "LINEAS": [
      "535",
      "537",
      "VAC082"
    ]
  },
  {
    "coordinates": [
      -3.91841104579802,
      40.3895143347831
    ],
    "CODIGOESTACION": 12003,
    "DENOMINACION": "MIÑO-RIO JUCAR",
    "LINEAS": [
      "510"
    ]
  },
  {
    "coordinates": [
      -3.91872011930705,
      40.3893224281873
    ],
    "CODIGOESTACION": 15926,
    "DENOMINACION": "MIÑO-JUCAR",
    "LINEAS": [
      "510"
    ]
  },
  {
    "coordinates": [
      -3.80341252058899,
      40.277925182258
    ],
    "CODIGOESTACION": 10513,
    "DENOMINACION": "TEIDE-POL.IND.LA ESTACIÓN",
    "LINEAS": [
      "492",
      "496",
      "497",
      "498",
      "N804"
    ]
  },
  {
    "coordinates": [
      -3.80353998305861,
      40.277762130236
    ],
    "CODIGOESTACION": 10514,
    "DENOMINACION": "TEIDE-POL.IND.LA ESTACIÓN",
    "LINEAS": [
      "492",
      "496",
      "497",
      "498",
      "N804"
    ]
  },
  {
    "coordinates": [
      -3.8449879020097,
      40.3505565534608
    ],
    "CODIGOESTACION": 12006,
    "DENOMINACION": "AV.EUROPA-UNIVERSIDAD",
    "LINEAS": [
      ""
    ]
  },
  {
    "coordinates": [
      -3.8060734392292,
      40.279131949794
    ],
    "CODIGOESTACION": 10516,
    "DENOMINACION": "TURQUÍA-MÓNACO",
    "LINEAS": [
      "492",
      "496",
      "497",
      "498"
    ]
  },
  {
    "coordinates": [
      -3.83181620656919,
      40.3433680922075
    ],
    "CODIGOESTACION": 8530,
    "DENOMINACION": "CANTOS-ZAMORA",
    "LINEAS": [
      "512"
    ]
  },
  {
    "coordinates": [
      -3.82506724236186,
      40.3417190100482
    ],
    "CODIGOESTACION": 8486,
    "DENOMINACION": "CANTOS-POLIDEPORTIVO",
    "LINEAS": [
      "512"
    ]
  },
  {
    "coordinates": [
      -3.80800369599272,
      40.2802176251156
    ],
    "CODIGOESTACION": 10521,
    "DENOMINACION": "TURQUÍA-CHIPRE",
    "LINEAS": [
      "492",
      "496",
      "497",
      "498"
    ]
  },
  {
    "coordinates": [
      -3.6949591629927,
      40.6068440973895
    ],
    "CODIGOESTACION": 10528,
    "DENOMINACION": "RONDA VALDECARRIZO-IMPRENTA",
    "LINEAS": [
      "723"
    ]
  },
  {
    "coordinates": [
      -3.79013848647908,
      40.7302414168693
    ],
    "CODIGOESTACION": 10529,
    "DENOMINACION": "CTRA.M862-LA GAMONOSA",
    "LINEAS": [
      "720",
      "724",
      "725",
      "726"
    ]
  },
  {
    "coordinates": [
      -3.90205636927584,
      40.7145440734529
    ],
    "CODIGOESTACION": 10530,
    "DENOMINACION": "CTRA.M608-INSTITUTO",
    "LINEAS": [
      "720",
      "724"
    ]
  },
  {
    "coordinates": [
      -3.79014409198587,
      40.72951108823
    ],
    "CODIGOESTACION": 10535,
    "DENOMINACION": "CTRA.M862-LA GAMONOSA",
    "LINEAS": [
      "720",
      "724",
      "725",
      "726"
    ]
  },
  {
    "coordinates": [
      -3.75917451964241,
      40.8140877382975
    ],
    "CODIGOESTACION": 10536,
    "DENOMINACION": "MIRAFLORES DE LA SIERRA-GUARDIA CIVIL",
    "LINEAS": [
      "725"
    ]
  },
  {
    "coordinates": [
      -3.75868889487095,
      40.8137000810892
    ],
    "CODIGOESTACION": 10537,
    "DENOMINACION": "MIRAFLORES DE LA SIERRA-GUARDIA CIVIL",
    "LINEAS": [
      "725"
    ]
  },
  {
    "coordinates": [
      -3.78061439242483,
      40.7555432440788
    ],
    "CODIGOESTACION": 10541,
    "DENOMINACION": "CTRA.M608-INSTITUTO",
    "LINEAS": [
      "726"
    ]
  },
  {
    "coordinates": [
      -3.81662532419629,
      40.4521413886052
    ],
    "CODIGOESTACION": 9491,
    "DENOMINACION": "ARQUITECTURA-ESCULTURA",
    "LINEAS": [
      "563"
    ]
  },
  {
    "coordinates": [
      -3.81534900447789,
      40.4509431817793
    ],
    "CODIGOESTACION": 9492,
    "DENOMINACION": "ESCULTURA-AV.BELLAS ARTES",
    "LINEAS": [
      "563"
    ]
  },
  {
    "coordinates": [
      -3.7521393680884,
      40.2733021866295
    ],
    "CODIGOESTACION": 8072,
    "DENOMINACION": "CTRA.A42-CRUCE COBO CALLEJA",
    "LINEAS": [
      "455",
      "460",
      "462",
      "N806"
    ]
  },
  {
    "coordinates": [
      -3.8316331718388,
      40.3431763287459
    ],
    "CODIGOESTACION": 8482,
    "DENOMINACION": "CANTOS-ZAMORA",
    "LINEAS": [
      "512"
    ]
  },
  {
    "coordinates": [
      -3.82852549578432,
      40.3427821469505
    ],
    "CODIGOESTACION": 8484,
    "DENOMINACION": "CANTOS-MAYOR",
    "LINEAS": [
      "512"
    ]
  },
  {
    "coordinates": [
      -3.82843251182821,
      40.342565898762
    ],
    "CODIGOESTACION": 8483,
    "DENOMINACION": "CANTOS-MAYOR",
    "LINEAS": [
      "512"
    ]
  },
  {
    "coordinates": [
      -3.81581153074106,
      40.341461964979
    ],
    "CODIGOESTACION": 8493,
    "DENOMINACION": "OLÍMPICO FCO.FDEZ.OCHOA-POLVORANCA",
    "LINEAS": [
      "511"
    ]
  },
  {
    "coordinates": [
      -3.31860152043317,
      40.244350921539
    ],
    "CODIGOESTACION": 9505,
    "DENOMINACION": "REAL-CENTRO DE SALUD",
    "LINEAS": [
      "322",
      "326"
    ]
  },
  {
    "coordinates": [
      -3.81739389454479,
      40.3411933665804
    ],
    "CODIGOESTACION": 8528,
    "DENOMINACION": "POLVORANCA-OLIMPICO FCO.FDEZ.OCHOA",
    "LINEAS": [
      "512",
      "513"
    ]
  },
  {
    "coordinates": [
      -3.82446912997682,
      40.3462058322413
    ],
    "CODIGOESTACION": 8497,
    "DENOMINACION": "POLVORANCA-MATADERO",
    "LINEAS": [
      "513",
      "520"
    ]
  },
  {
    "coordinates": [
      -3.81206103466683,
      40.3561341051214
    ],
    "CODIGOESTACION": 8498,
    "DENOMINACION": "BETANZOS-MELONEROS",
    "LINEAS": [
      "514",
      "520"
    ]
  },
  {
    "coordinates": [
      -3.7725418943709,
      40.3265315017963
    ],
    "CODIGOESTACION": 9509,
    "DENOMINACION": "POLVORANCA-NTRA.SEÑORA DE BEGOÑA",
    "LINEAS": [
      "432"
    ]
  },
  {
    "coordinates": [
      -3.82535919680389,
      40.3479114172681
    ],
    "CODIGOESTACION": 8500,
    "DENOMINACION": "POLVORANCA-JABONERÍA",
    "LINEAS": [
      "513",
      "520"
    ]
  },
  {
    "coordinates": [
      -3.82427872685625,
      40.3504149339643
    ],
    "CODIGOESTACION": 8501,
    "DENOMINACION": "AV.CANTARRANAS-SAN JOSÉ",
    "LINEAS": [
      "510",
      "513",
      "520"
    ]
  },
  {
    "coordinates": [
      -3.53019830904879,
      40.9222407638943
    ],
    "CODIGOESTACION": 12529,
    "DENOMINACION": "CERVERA DE BUITRAGO-AYUNTAMIENTO",
    "LINEAS": [
      "191E",
      "199A"
    ]
  },
  {
    "coordinates": [
      -3.69514103364242,
      40.2487248897478
    ],
    "CODIGOESTACION": 12379,
    "DENOMINACION": "AV.EUROPA-REINO UNIDO",
    "LINEAS": [
      "421",
      "428",
      "N401"
    ]
  },
  {
    "coordinates": [
      -3.78811151123336,
      40.3149691987729
    ],
    "CODIGOESTACION": 15593,
    "DENOMINACION": "ALCALDE RAMÓN YERRO ORDÓÑEZ-MÓSTOLES",
    "LINEAS": [
      "482",
      "N804"
    ]
  },
  {
    "coordinates": [
      -3.28425861128783,
      40.4443455761269
    ],
    "CODIGOESTACION": 12536,
    "DENOMINACION": "ESPLIEGO-TOMILLO",
    "LINEAS": [
      "271"
    ]
  },
  {
    "coordinates": [
      -3.78481860293467,
      40.3138671772033
    ],
    "CODIGOESTACION": 15595,
    "DENOMINACION": "MÓSTOLES-ALCALDE MANUEL GÓMEZ CASADO",
    "LINEAS": [
      "N804"
    ]
  },
  {
    "coordinates": [
      -3.82225016411243,
      40.9270791413346
    ],
    "CODIGOESTACION": 12491,
    "DENOMINACION": "PINILLA DEL VALLE-COLEGIO",
    "LINEAS": [
      "194",
      "194A"
    ]
  },
  {
    "coordinates": [
      -3.78471232381299,
      40.3141014988442
    ],
    "CODIGOESTACION": 15596,
    "DENOMINACION": "ALCALDE MANUEL GÓMEZ CASADO-MÓSTOLES",
    "LINEAS": [
      "N804"
    ]
  },
  {
    "coordinates": [
      -3.78417446436857,
      40.3124514274177
    ],
    "CODIGOESTACION": 15597,
    "DENOMINACION": "ALCALDE FCO.MORENO-EST.PARQUE POLVORANCA",
    "LINEAS": [
      "482"
    ]
  },
  {
    "coordinates": [
      -3.27994723990106,
      40.4344644705333
    ],
    "CODIGOESTACION": 12544,
    "DENOMINACION": "AV.URBA-AV.ROBLEDAL",
    "LINEAS": [
      "271"
    ]
  },
  {
    "coordinates": [
      -3.63818884925565,
      40.9903008317629
    ],
    "CODIGOESTACION": 12546,
    "DENOMINACION": "AV.MADRID-CENTRO DE ESTUDIOS",
    "LINEAS": [
      "191",
      "196",
      "191D",
      "191E",
      "194A",
      "195B",
      "199A"
    ]
  },
  {
    "coordinates": [
      -3.63737795969194,
      40.982369675041
    ],
    "CODIGOESTACION": 12548,
    "DENOMINACION": "CTRA.MANJIRÓN-AV.MADRID",
    "LINEAS": [
      "196",
      "191D",
      "199A"
    ]
  },
  {
    "coordinates": [
      -4.02021900170059,
      40.6296192504701
    ],
    "CODIGOESTACION": 12553,
    "DENOMINACION": "ESCOFINA-CAMINO DEL MOLINO",
    "LINEAS": [
      ""
    ]
  },
  {
    "coordinates": [
      -3.83918220663695,
      40.3035910279623
    ],
    "CODIGOESTACION": 12425,
    "DENOMINACION": "AV.PABLO IGLESIAS-AV.LIBERTAD",
    "LINEAS": [
      "493",
      "527"
    ]
  },
  {
    "coordinates": [
      -3.7861138588428,
      40.3217024922176
    ],
    "CODIGOESTACION": 15604,
    "DENOMINACION": "CÉSAR GªCONTONENTE-ALCALDE A.DE CASTRO",
    "LINEAS": [
      "482",
      "N804"
    ]
  },
  {
    "coordinates": [
      -3.7862912202405,
      40.3216893685473
    ],
    "CODIGOESTACION": 15605,
    "DENOMINACION": "CÉSAR GªCONTONENTE-ALCALDE A.DE CASTRO",
    "LINEAS": [
      "482",
      "N804"
    ]
  },
  {
    "coordinates": [
      -3.3723031004917,
      40.4950517397335
    ],
    "CODIGOESTACION": 12433,
    "DENOMINACION": "ALEJO CARPENTIER-MIGUEL DELIBES",
    "LINEAS": [
      "227"
    ]
  },
  {
    "coordinates": [
      -3.37222129347509,
      40.4949375853391
    ],
    "CODIGOESTACION": 12434,
    "DENOMINACION": "ALEJO CARPENTIER-MIGUEL DELIBES",
    "LINEAS": [
      "227"
    ]
  },
  {
    "coordinates": [
      -3.36886163813908,
      40.4889732821603
    ],
    "CODIGOESTACION": 12435,
    "DENOMINACION": "E.PASCUAL Y CUÉLLAR-CENTRO DE JUBILADOS",
    "LINEAS": [
      ""
    ]
  },
  {
    "coordinates": [
      -3.32899356309963,
      40.5578621608133
    ],
    "CODIGOESTACION": 12313,
    "DENOMINACION": "AV.CERVANTES-CºVALDEAVERO",
    "LINEAS": [
      "250"
    ]
  },
  {
    "coordinates": [
      -3.48113781443933,
      40.5268602818763
    ],
    "CODIGOESTACION": 12314,
    "DENOMINACION": "CTRA.M114-POL.IND.LOS TRES",
    "LINEAS": [
      "251",
      "252"
    ]
  },
  {
    "coordinates": [
      -3.7537451766993,
      40.361701452828
    ],
    "CODIGOESTACION": 16166,
    "DENOMINACION": "AV.CARABANCHEL ALTO-AV.LA PESETA",
    "LINEAS": [
      "481",
      "482",
      "491",
      "492",
      "493"
    ]
  },
  {
    "coordinates": [
      -3.75404366203982,
      40.3616423001347
    ],
    "CODIGOESTACION": 16165,
    "DENOMINACION": "AV.CARABANCHEL ALTO-AV.LA PESETA",
    "LINEAS": [
      "481",
      "482",
      "491",
      "492",
      "493"
    ]
  },
  {
    "coordinates": [
      -3.92432835772184,
      40.2765004764088
    ],
    "CODIGOESTACION": 16212,
    "DENOMINACION": "RÍO TAJO-VALDELACEA",
    "LINEAS": [
      "496"
    ]
  },
  {
    "coordinates": [
      -3.76615428466817,
      40.2273112058644
    ],
    "CODIGOESTACION": 12276,
    "DENOMINACION": "AV.AMÉRICA-COLOMBIA",
    "LINEAS": [
      "462"
    ]
  },
  {
    "coordinates": [
      -3.94118734348004,
      40.2445371758257
    ],
    "CODIGOESTACION": 16224,
    "DENOMINACION": "AV.VALLE-URB.COTORREDONDO",
    "LINEAS": [
      "499"
    ]
  },
  {
    "coordinates": [
      -3.94822137212557,
      40.2482048062969
    ],
    "CODIGOESTACION": 16226,
    "DENOMINACION": "ÁGUILA REAL-GAVILÁN",
    "LINEAS": [
      "499"
    ]
  },
  {
    "coordinates": [
      -3.93707841257819,
      40.2445166873276
    ],
    "CODIGOESTACION": 16228,
    "DENOMINACION": "AV.VALLE-GACELA",
    "LINEAS": [
      "499"
    ]
  },
  {
    "coordinates": [
      -3.9486255914029,
      40.2456770890899
    ],
    "CODIGOESTACION": 16225,
    "DENOMINACION": "AV.DEPORTIVA-AV.VALLE",
    "LINEAS": [
      "499"
    ]
  },
  {
    "coordinates": [
      -3.85138673401605,
      40.3177710424521
    ],
    "CODIGOESTACION": 8562,
    "DENOMINACION": "SIMÓN HERNÁNDEZ-AV.CARLOS V",
    "LINEAS": [
      "526",
      "527"
    ]
  },
  {
    "coordinates": [
      -3.85118689262977,
      40.3174793195567
    ],
    "CODIGOESTACION": 8591,
    "DENOMINACION": "SIMÓN HERNÁNDEZ-AV.CARLOS V",
    "LINEAS": [
      "526",
      "527"
    ]
  },
  {
    "coordinates": [
      -3.84973846479337,
      40.3212655922195
    ],
    "CODIGOESTACION": 8563,
    "DENOMINACION": "AV.CARLOS V-EMPECINADO",
    "LINEAS": [
      "523",
      "N503"
    ]
  },
  {
    "coordinates": [
      -3.85003775603093,
      40.3212920008863
    ],
    "CODIGOESTACION": 8564,
    "DENOMINACION": "AV.CARLOS V-EMPECINADO",
    "LINEAS": [
      "523",
      "N503"
    ]
  },
  {
    "coordinates": [
      -3.85085923884772,
      40.3253014812833
    ],
    "CODIGOESTACION": 8566,
    "DENOMINACION": "AV.ONU-BARCELONA",
    "LINEAS": [
      "523",
      "N503"
    ]
  },
  {
    "coordinates": [
      -3.85087079421053,
      40.3254777887718
    ],
    "CODIGOESTACION": 8565,
    "DENOMINACION": "AV.ONU-ESTORIL",
    "LINEAS": [
      "523",
      "N503"
    ]
  },