[
  {
    "CODIGOCTMESTACIONREDMETRO": 50,
    "CODIGOESTACION": 38,
    "DENOMINACION": "NOVICIADO",
    "coordinates": [
      -3.70741904261363,
      40.4248422335784
    ]
  },
  {
    "CODIGOCTMESTACIONREDMETRO": 175,
    "CODIGOESTACION": 175,
    "DENOMINACION": "ESTRELLA",
    "coordinates": [
      -3.66178527076064,
      40.4114722192065
    ]
  },
  {
    "CODIGOCTMESTACIONREDMETRO": 7,
    "CODIGOESTACION": 7,
    "DENOMINACION": "RIOS ROSAS",
    "coordinates": [
      -3.70132848117729,
      40.4419753563559
    ]
  },
  {
    "CODIGOCTMESTACIONREDMETRO": 102,
    "CODIGOESTACION": 102,
    "DENOMINACION": "CAMPAMENTO",
    "coordinates": [
      -3.76812813678741,
      40.3948077574021
    ]
  },
  {
    "CODIGOCTMESTACIONREDMETRO": 109,
    "CODIGOESTACION": 109,
    "DENOMINACION": "USERA",
    "coordinates": [
      -3.70689564278932,
      40.3870966932697
    ]
  },
  {
    "CODIGOCTMESTACIONREDMETRO": 115,
    "CODIGOESTACION": 115,
    "DENOMINACION": "O'DONNELL",
    "coordinates": [
      -3.66859514629195,
      40.4228884246446
    ]
  },
  {
    "CODIGOCTMESTACIONREDMETRO": 128,
    "CODIGOESTACION": 128,
    "DENOMINACION": "PUERTA DEL ANGEL",
    "coordinates": [
      -3.72724045181543,
      40.4138988943963
    ]
  },
  {
    "CODIGOCTMESTACIONREDMETRO": 230,
    "CODIGOESTACION": 230,
    "DENOMINACION": "EL BERCIAL",
    "coordinates": [
      -3.72963318048934,
      40.3290723674829
    ]
  },
  {
    "CODIGOCTMESTACIONREDMETRO": 268,
    "CODIGOESTACION": 268,
    "DENOMINACION": "HOSPITAL 12 DE OCTUBRE",
    "coordinates": [
      -3.69585469244456,
      40.375031361291
    ]
  },
  {
    "CODIGOCTMESTACIONREDMETRO": 267,
    "CODIGOESTACION": 267,
    "DENOMINACION": "ALMENDRALES",
    "coordinates": [
      -3.69788139765522,
      40.384093527174
    ]
  },
  {
    "CODIGOCTMESTACIONREDMETRO": 47,
    "CODIGOESTACION": 47,
    "DENOMINACION": "LAVAPIES",
    "coordinates": [
      -3.70090412320048,
      40.4085109428559
    ]
  },
  {
    "CODIGOCTMESTACIONREDMETRO": 274,
    "CODIGOESTACION": 274,
    "DENOMINACION": "TRES OLIVOS",
    "coordinates": [
      -3.69520245046674,
      40.501204627482
    ]
  },
  {
    "CODIGOCTMESTACIONREDMETRO": 269,
    "CODIGOESTACION": 269,
    "DENOMINACION": "SAN FERMIN-ORCASUR",
    "coordinates": [
      -3.6941764145037,
      40.3699909305509
    ]
  },
  {
    "CODIGOCTMESTACIONREDMETRO": 135,
    "CODIGOESTACION": 135,
    "DENOMINACION": "GARCIA NOBLEJAS",
    "coordinates": [
      -3.63329946572732,
      40.4284231905451
    ]
  },
  {
    "CODIGOCTMESTACIONREDMETRO": 142,
    "CODIGOESTACION": 142,
    "DENOMINACION": "GREGORIO MARAÑON",
    "coordinates": [
      -3.69148286211901,
      40.438250994429
    ]
  },
  {
    "CODIGOCTMESTACIONREDMETRO": 150,
    "CODIGOESTACION": 150,
    "DENOMINACION": "PEÑAGRANDE",
    "coordinates": [
      -3.71582415791248,
      40.4759235202497
    ]
  },
  {
    "CODIGOCTMESTACIONREDMETRO": 161,
    "CODIGOESTACION": 161,
    "DENOMINACION": "HERRERA ORIA",
    "coordinates": [
      -3.70751021303079,
      40.484662780153
    ]
  },
  {
    "CODIGOCTMESTACIONREDMETRO": 166,
    "CODIGOESTACION": 166,
    "DENOMINACION": "PIO XII",
    "coordinates": [
      -3.67579015001895,
      40.4630027605113
    ]
  },
  {
    "CODIGOCTMESTACIONREDMETRO": 52,
    "CODIGOESTACION": 52,
    "DENOMINACION": "ARGÜELLES",
    "coordinates": [
      -3.71596265109483,
      40.4306609302246
    ]
  },
  {
    "CODIGOCTMESTACIONREDMETRO": 49,
    "CODIGOESTACION": 88,
    "DENOMINACION": "CALLAO",
    "coordinates": [
      -3.70566477670052,
      40.4200832543965
    ]
  },
  {
    "CODIGOCTMESTACIONREDMETRO": 264,
    "CODIGOESTACION": 264,
    "DENOMINACION": "HORTALEZA",
    "coordinates": [
      -3.65257261134101,
      40.475371717959
    ]
  },
  {
    "CODIGOCTMESTACIONREDMETRO": 285,
    "CODIGOESTACION": 285,
    "DENOMINACION": "AEROPUERTO T4",
    "coordinates": [
      -3.59324559721343,
      40.491766772326
    ]
  },
  {
    "CODIGOCTMESTACIONREDMETRO": 154,
    "CODIGOESTACION": 154,
    "DENOMINACION": "PITIS",
    "coordinates": [
      -3.72589123290808,
      40.4951058423757
    ]
  },
  {
    "CODIGOCTMESTACIONREDMETRO": 214,
    "CODIGOESTACION": 214,
    "DENOMINACION": "MOSTOLES CENTRAL",
    "coordinates": [
      -3.86354217563866,
      40.3285002183315
    ]
  },
  {
    "CODIGOCTMESTACIONREDMETRO": 91,
    "CODIGOESTACION": 91,
    "DENOMINACION": "PUERTA DE TOLEDO",
    "coordinates": [
      -3.71104645076763,
      40.4070357544619
    ]
  },
  {
    "CODIGOCTMESTACIONREDMETRO": 279,
    "CODIGOESTACION": 279,
    "DENOMINACION": "LA MORALEJA",
    "coordinates": [
      -3.63555952271399,
      40.5319556473465
    ]
  },
  {
    "CODIGOCTMESTACIONREDMETRO": 221,
    "CODIGOESTACION": 221,
    "DENOMINACION": "FUENLABRADA CENTRAL",
    "coordinates": [
      -3.79890690078202,
      40.2826757751405
    ]
  },
  {
    "CODIGOCTMESTACIONREDMETRO": 140,
    "CODIGOESTACION": 140,
    "DENOMINACION": "CARTAGENA",
    "coordinates": [
      -3.67215160132978,
      40.4393374952451
    ]
  },
  {
    "CODIGOCTMESTACIONREDMETRO": 50,
    "CODIGOESTACION": 197,
    "DENOMINACION": "PLAZA DE ESPAÑA",
    "coordinates": [
      -3.70969871159774,
      40.4240868846098
    ]
  },
  {
    "CODIGOCTMESTACIONREDMETRO": 145,
    "CODIGOESTACION": 145,
    "DENOMINACION": "ISLAS FILIPINAS",
    "coordinates": [
      -3.71372864479935,
      40.4390682066327
    ]
  },
  {
    "CODIGOCTMESTACIONREDMETRO": 173,
    "CODIGOESTACION": 173,
    "DENOMINACION": "IBIZA",
    "coordinates": [
      -3.67857510552646,
      40.4183912105898
    ]
  },
  {
    "CODIGOCTMESTACIONREDMETRO": 5,
    "CODIGOESTACION": 5,
    "DENOMINACION": "ALVARADO",
    "coordinates": [
      -3.70331420927578,
      40.4503319759943
    ]
  },
  {
    "CODIGOCTMESTACIONREDMETRO": 58,
    "CODIGOESTACION": 58,
    "DENOMINACION": "COLON",
    "coordinates": [
      -3.69100739257143,
      40.4254191821374
    ]
  },
  {
    "CODIGOCTMESTACIONREDMETRO": 34,
    "CODIGOESTACION": 34,
    "DENOMINACION": "SEVILLA",
    "coordinates": [
      -3.69925113804034,
      40.4180507481241
    ]
  },
  {
    "CODIGOCTMESTACIONREDMETRO": 33,
    "CODIGOESTACION": 33,
    "DENOMINACION": "BANCO DE ESPAÑA",
    "coordinates": [
      -3.69496510558138,
      40.4192197861148
    ]
  },
  {
    "CODIGOCTMESTACIONREDMETRO": 4,
    "CODIGOESTACION": 4,
    "DENOMINACION": "ESTRECHO",
    "coordinates": [
      -3.70302295994985,
      40.4542880258282
    ]
  },
  {
    "CODIGOCTMESTACIONREDMETRO": 300,
    "CODIGOESTACION": 300,
    "DENOMINACION": "RIVAS FUTURA",
    "coordinates": [
      -3.52478901227188,
      40.3413421540536
    ]
  },
  {
    "CODIGOCTMESTACIONREDMETRO": 108,
    "CODIGOESTACION": 108,
    "DENOMINACION": "PLAZA ELIPTICA",
    "coordinates": [
      -3.71837055781195,
      40.3846000554076
    ]
  },
  {
    "CODIGOCTMESTACIONREDMETRO": 159,
    "CODIGOESTACION": 159,
    "DENOMINACION": "AEROPUERTO T1 T2 T3",
    "coordinates": [
      -3.56953825594321,
      40.4686442368363
    ]
  },
  {
    "CODIGOCTMESTACIONREDMETRO": 64,
    "CODIGOESTACION": 64,
    "DENOMINACION": "AVENIDA DE AMERICA",
    "coordinates": [
      -3.67663955532626,
      40.4380325773816
    ]
  },
  {
    "CODIGOCTMESTACIONREDMETRO": 6,
    "CODIGOESTACION": 121,
    "DENOMINACION": "CUATRO CAMINOS",
    "coordinates": [
      -3.70386869928601,
      40.4469745969046
    ]
  },
  {
    "CODIGOCTMESTACIONREDMETRO": 29,
    "CODIGOESTACION": 116,
    "DENOMINACION": "MANUEL BECERRA",
    "coordinates": [
      -3.66920518071164,
      40.4279044798375
    ]
  },
  {
    "CODIGOCTMESTACIONREDMETRO": 19,
    "CODIGOESTACION": 19,
    "DENOMINACION": "PUENTE DE VALLECAS",
    "coordinates": [
      -3.66905899947859,
      40.3981921510029
    ]
  },
  {
    "CODIGOCTMESTACIONREDMETRO": 291,
    "CODIGOESTACION": 291,
    "DENOMINACION": "JARAMA",
    "coordinates": [
      -3.52549376489887,
      40.422954804338
    ]
  },
  {
    "CODIGOCTMESTACIONREDMETRO": 41,
    "CODIGOESTACION": 144,
    "DENOMINACION": "CANAL",
    "coordinates": [
      -3.70488898865674,
      40.4387025079451
    ]
  },
  {
    "CODIGOCTMESTACIONREDMETRO": 277,
    "CODIGOESTACION": 277,
    "DENOMINACION": "RONDA DE LA COMUNICACION",
    "coordinates": [
      -3.66276510350324,
      40.5155346471774
    ]
  },
  {
    "CODIGOCTMESTACIONREDMETRO": 57,
    "CODIGOESTACION": 195,
    "DENOMINACION": "ALONSO MARTINEZ",
    "coordinates": [
      -3.69643188600389,
      40.42852602883
    ]
  },
  {
    "CODIGOCTMESTACIONREDMETRO": 45,
    "CODIGOESTACION": 45,
    "DENOMINACION": "PALOS DE LA FRONTERA",
    "coordinates": [
      -3.69423268407983,
      40.4030722839783
    ]
  },
  {
    "CODIGOCTMESTACIONREDMETRO": 78,
    "CODIGOESTACION": 137,
    "DENOMINACION": "PUEBLO NUEVO",
    "coordinates": [
      -3.64282293725217,
      40.4356585154991
    ]
  },
  {
    "CODIGOCTMESTACIONREDMETRO": 122,
    "CODIGOESTACION": 122,
    "DENOMINACION": "GUZMAN EL BUENO",
    "coordinates": [
      -3.71229403706057,
      40.4463660791437
    ]
  },
  {
    "CODIGOCTMESTACIONREDMETRO": 18,
    "CODIGOESTACION": 18,
    "DENOMINACION": "PACIFICO",
    "coordinates": [
      -3.67513655621334,
      40.4012617890482
    ]
  },
  {
    "CODIGOCTMESTACIONREDMETRO": 11,
    "CODIGOESTACION": 87,
    "DENOMINACION": "GRAN VIA",
    "coordinates": [
      -3.70180393013566,
      40.4199866177357
    ]
  },
  {
    "CODIGOCTMESTACIONREDMETRO": 25,
    "CODIGOESTACION": 25,
    "DENOMINACION": "SIERRA DE GUADALUPE",
    "coordinates": [
      -3.62471747014878,
      40.3821642503006
    ]
  },
  {
    "CODIGOCTMESTACIONREDMETRO": 187,
    "CODIGOESTACION": 187,
    "DENOMINACION": "FUENCARRAL",
    "coordinates": [
      -3.69283123100657,
      40.4950851624077
    ]
  },
  {
    "CODIGOCTMESTACIONREDMETRO": 2,
    "CODIGOESTACION": 2,
    "DENOMINACION": "VALDEACEDERAS",
    "coordinates": [
      -3.69506203750875,
      40.4644241785987
    ]
  },
  {
    "CODIGOCTMESTACIONREDMETRO": 208,
    "CODIGOESTACION": 208,
    "DENOMINACION": "PAN BENDITO",
    "coordinates": [
      -3.73416885653047,
      40.3758686366567
    ]
  },
  {
    "CODIGOCTMESTACIONREDMETRO": 210,
    "CODIGOESTACION": 210,
    "DENOMINACION": "PARQUE LISBOA",
    "coordinates": [
      -3.82119573255216,
      40.3496872815222
    ]
  },
  {
    "CODIGOCTMESTACIONREDMETRO": 104,
    "CODIGOESTACION": 104,
    "DENOMINACION": "LAGUNA",
    "coordinates": [
      -3.74428871805663,
      40.3992296247106
    ]
  },
  {
    "CODIGOCTMESTACIONREDMETRO": 222,
    "CODIGOESTACION": 222,
    "DENOMINACION": "PARQUE DE LOS ESTADOS",
    "coordinates": [
      -3.7869740434575,
      40.2868358005326
    ]
  },
  {
    "CODIGOCTMESTACIONREDMETRO": 227,
    "CODIGOESTACION": 227,
    "DENOMINACION": "JUAN DE LA CIERVA",
    "coordinates": [
      -3.72224012270444,
      40.3118023648563
    ]
  },
  {
    "CODIGOCTMESTACIONREDMETRO": 231,
    "CODIGOESTACION": 231,
    "DENOMINACION": "EL CARRASCAL",
    "coordinates": [
      -3.74018488291484,
      40.3366382437775
    ]
  },
  {
    "CODIGOCTMESTACIONREDMETRO": 233,
    "CODIGOESTACION": 233,
    "DENOMINACION": "CASA DEL RELOJ",
    "coordinates": [
      -3.75942499130863,
      40.3266027213842
    ]
  },
  {
    "CODIGOCTMESTACIONREDMETRO": 253,
    "CODIGOESTACION": 253,
    "DENOMINACION": "EL CAPRICHO",
    "coordinates": [
      -3.59401165769579,
      40.4534683327049
    ]
  },
  {
    "CODIGOCTMESTACIONREDMETRO": 26,
    "CODIGOESTACION": 26,
    "DENOMINACION": "VILLA DE VALLECAS",
    "coordinates": [
      -3.62129648488235,
      40.3795986114191
    ]
  },
  {
    "CODIGOCTMESTACIONREDMETRO": 179,
    "CODIGOESTACION": 179,
    "DENOMINACION": "VALDEBERNARDO",
    "coordinates": [
      -3.62155915980853,
      40.400047129618
    ]
  },
  {
    "CODIGOCTMESTACIONREDMETRO": 156,
    "CODIGOESTACION": 167,
    "DENOMINACION": "COLOMBIA",
    "coordinates": [
      -3.67693905940289,
      40.4574897504124
    ]
  },
  {
    "CODIGOCTMESTACIONREDMETRO": 132,
    "CODIGOESTACION": 132,
    "DENOMINACION": "LAS MUSAS",
    "coordinates": [
      -3.60787951427632,
      40.4329881279398
    ]
  },
  {
    "CODIGOCTMESTACIONREDMETRO": 63,
    "CODIGOESTACION": 117,
    "DENOMINACION": "DIEGO DE LEON",
    "coordinates": [
      -3.67293856677242,
      40.4329476824461
    ]
  },
  {
    "CODIGOCTMESTACIONREDMETRO": 83,
    "CODIGOESTACION": 171,
    "DENOMINACION": "NUÑEZ DE BALBOA",
    "coordinates": [
      -3.67936371945562,
      40.4301298212657
    ]
  },
  {
    "CODIGOCTMESTACIONREDMETRO": 28,
    "CODIGOESTACION": 81,
    "DENOMINACION": "VENTAS",
    "coordinates": [
      -3.66360584172735,
      40.4308848031949
    ]
  },
  {
    "CODIGOCTMESTACIONREDMETRO": 1,
    "CODIGOESTACION": 190,
    "DENOMINACION": "PLAZA DE CASTILLA",
    "coordinates": [
      -3.68908610432808,
      40.4668965341419
    ]
  },
  {
    "CODIGOCTMESTACIONREDMETRO": 182,
    "CODIGOESTACION": 182,
    "DENOMINACION": "PUERTA DE ARGANDA",
    "coordinates": [
      -3.59597530294796,
      40.4013157821612
    ]
  },
  {
    "CODIGOCTMESTACIONREDMETRO": 158,
    "CODIGOESTACION": 158,
    "DENOMINACION": "FERIA DE MADRID",
    "coordinates": [
      -3.61620468224152,
      40.4638931513133
    ]
  },
  {
    "CODIGOCTMESTACIONREDMETRO": 99,
    "CODIGOESTACION": 99,
    "DENOMINACION": "EUGENIA DE MONTIJO",
    "coordinates": [
      -3.75121118478282,
      40.3843857971757
    ]
  },
  {
    "CODIGOCTMESTACIONREDMETRO": 305,
    "CODIGOESTACION": 305,
    "DENOMINACION": "LA FORTUNA",
    "coordinates": [
      -3.777825849896,
      40.3579531289265
    ]
  },
  {
    "CODIGOCTMESTACIONREDMETRO": 323,
    "CODIGOESTACION": 323,
    "DENOMINACION": "ALSACIA",
    "coordinates": [
      -3.62350600154867,
      40.4182926946444
    ]
  },
  {
    "CODIGOCTMESTACIONREDMETRO": 322,
    "CODIGOESTACION": 322,
    "DENOMINACION": "LA ALMUDENA",
    "coordinates": [
      -3.63914233036257,
      40.4236132906806
    ]
  },
  {
    "CODIGOCTMESTACIONREDMETRO": 345,
    "CODIGOESTACION": 345,
    "DENOMINACION": "PACO DE LUCIA",
    "coordinates": [
      -3.70908148055736,
      40.4996549120517
    ]
  },
  {
    "CODIGOCTMESTACIONREDMETRO": 60,
    "CODIGOESTACION": 60,
    "DENOMINACION": "VELAZQUEZ",
    "coordinates": [
      -3.6829181480862,
      40.4250325508648
    ]
  },
  {
    "CODIGOCTMESTACIONREDMETRO": 65,
    "CODIGOESTACION": 65,
    "DENOMINACION": "PROSPERIDAD",
    "coordinates": [
      -3.67481890299206,
      40.4441889741445
    ]
  },
  {
    "CODIGOCTMESTACIONREDMETRO": 68,
    "CODIGOESTACION": 68,
    "DENOMINACION": "ARTURO SORIA",
    "coordinates": [
      -3.65618121809782,
      40.4558324918715
    ]
  },
  {
    "CODIGOCTMESTACIONREDMETRO": 70,
    "CODIGOESTACION": 70,
    "DENOMINACION": "CANILLAS",
    "coordinates": [
      -3.63559546398109,
      40.4638105369802
    ]
  },
  {
    "CODIGOCTMESTACIONREDMETRO": 73,
    "CODIGOESTACION": 73,
    "DENOMINACION": "PARQUE DE SANTA MARIA",
    "coordinates": [
      -3.64524200216563,
      40.4771142938967
    ]
  },
  {
    "CODIGOCTMESTACIONREDMETRO": 77,
    "CODIGOESTACION": 77,
    "DENOMINACION": "CIUDAD LINEAL",
    "coordinates": [
      -3.6381575883455,
      40.4380484084201
    ]
  },
  {
    "CODIGOCTMESTACIONREDMETRO": 90,
    "CODIGOESTACION": 90,
    "DENOMINACION": "LA LATINA",
    "coordinates": [
      -3.70816086851901,
      40.4112803286869
    ]
  },
  {
    "CODIGOCTMESTACIONREDMETRO": 98,
    "CODIGOESTACION": 98,
    "DENOMINACION": "CARABANCHEL",
    "coordinates": [
      -3.74487052104138,
      40.387827019968
    ]
  },
  {
    "CODIGOCTMESTACIONREDMETRO": 183,
    "CODIGOESTACION": 183,
    "DENOMINACION": "RIVAS URBANIZACIONES",
    "coordinates": [
      -3.54727580674555,
      40.3667715025775
    ]
  },
  {
    "CODIGOCTMESTACIONREDMETRO": 62,
    "CODIGOESTACION": 62,
    "DENOMINACION": "LISTA",
    "coordinates": [
      -3.67540982227869,
      40.4291685202558
    ]
  },
  {
    "CODIGOCTMESTACIONREDMETRO": 199,
    "CODIGOESTACION": 199,
    "DENOMINACION": "LAGO",
    "coordinates": [
      -3.73563105937362,
      40.4164141109915
    ]
  },
  {
    "CODIGOCTMESTACIONREDMETRO": 200,
    "CODIGOESTACION": 200,
    "DENOMINACION": "BATAN",
    "coordinates": [
      -3.75310993717595,
      40.4078602084024
    ]
  },
  {
    "CODIGOCTMESTACIONREDMETRO": 12,
    "CODIGOESTACION": 12,
    "DENOMINACION": "SOL",
    "coordinates": [
      -3.70326164857528,
      40.416876060894
    ]
  },
  {
    "CODIGOCTMESTACIONREDMETRO": 12,
    "CODIGOESTACION": 35,
    "DENOMINACION": "SOL",
    "coordinates": [
      -3.70326135075521,
      40.4168474580948
    ]
  },
  {
    "CODIGOCTMESTACIONREDMETRO": 12,
    "CODIGOESTACION": 48,
    "DENOMINACION": "SOL",
    "coordinates": [
      -3.7032610281165,
      40.4168164716537
    ]
  },
  {
    "CODIGOCTMESTACIONREDMETRO": 120,
    "CODIGOESTACION": 120,
    "DENOMINACION": "NUEVOS MINISTERIOS",
    "coordinates": [
      -3.69240645851146,
      40.4466212151825
    ]
  },
  {
    "CODIGOCTMESTACIONREDMETRO": 120,
    "CODIGOESTACION": 193,
    "DENOMINACION": "NUEVOS MINISTERIOS",
    "coordinates": [
      -3.69240609163204,
      40.4465854651635
    ]
  },
  {
    "CODIGOCTMESTACIONREDMETRO": 185,
    "CODIGOESTACION": 185,
    "DENOMINACION": "LA POVEDA",
    "coordinates": [
      -3.47744735058845,
      40.3190157307928
    ]
  },
  {
    "CODIGOCTMESTACIONREDMETRO": 101,
    "CODIGOESTACION": 101,
    "DENOMINACION": "EMPALME",
    "coordinates": [
      -3.76534787557234,
      40.3905725578316
    ]
  },
  {
    "CODIGOCTMESTACIONREDMETRO": 226,
    "CODIGOESTACION": 226,
    "DENOMINACION": "GETAFE CENTRAL",
    "coordinates": [
      -3.734025028929,
      40.3099279090417
    ]
  },
  {
    "CODIGOCTMESTACIONREDMETRO": 10,
    "CODIGOESTACION": 10,
    "DENOMINACION": "TRIBUNAL",
    "coordinates": [
      -3.70109984950459,
      40.4261853955902
    ]
  },
  {
    "CODIGOCTMESTACIONREDMETRO": 105,
    "CODIGOESTACION": 105,
    "DENOMINACION": "CARPETANA",
    "coordinates": [
      -3.74099367671356,
      40.3927018994635
    ]
  },
  {
    "CODIGOCTMESTACIONREDMETRO": 107,
    "CODIGOESTACION": 107,
    "DENOMINACION": "OPAÑEL",
    "coordinates": [
      -3.72313362116361,
      40.3869044042556
    ]
  },
  {
    "CODIGOCTMESTACIONREDMETRO": 113,
    "CODIGOESTACION": 113,
    "DENOMINACION": "CONDE DE CASAL",
    "coordinates": [
      -3.67040806723398,
      40.4069679504754
    ]
  },
  {
    "CODIGOCTMESTACIONREDMETRO": 123,
    "CODIGOESTACION": 123,
    "DENOMINACION": "VICENTE ALEIXANDRE",
    "coordinates": [
      -3.71942671196889,
      40.4464363993485
    ]
  },
  {
    "CODIGOCTMESTACIONREDMETRO": 129,
    "CODIGOESTACION": 129,
    "DENOMINACION": "ALTO DE EXTREMADURA",
    "coordinates": [
      -3.73893618157226,
      40.4099260169851
    ]
  },
  {
    "CODIGOCTMESTACIONREDMETRO": 13,
    "CODIGOESTACION": 13,
    "DENOMINACION": "TIRSO DE MOLINA",
    "coordinates": [
      -3.70465526879971,
      40.4123480941102
    ]
  },
  {
    "CODIGOCTMESTACIONREDMETRO": 50,
    "CODIGOESTACION": 50,
    "DENOMINACION": "PLAZA DE ESPAÑA",
    "coordinates": [
      -3.71119703758009,
      40.4234160279581
    ]
  },
  {
    "CODIGOCTMESTACIONREDMETRO": 51,
    "CODIGOESTACION": 51,
    "DENOMINACION": "VENTURA RODRIGUEZ",
    "coordinates": [
      -3.71341309670545,
      40.4270873644311
    ]
  },
  {
    "CODIGOCTMESTACIONREDMETRO": 276,
    "CODIGOESTACION": 276,
    "DENOMINACION": "LAS TABLAS",
    "coordinates": [
      -3.66944258328346,
      40.5083301210639
    ]
  },
  {
    "CODIGOCTMESTACIONREDMETRO": 103,
    "CODIGOESTACION": 103,
    "DENOMINACION": "CASA DE CAMPO",
    "coordinates": [
      -3.7610136676265,
      40.4032422708359
    ]
  },
  {
    "CODIGOCTMESTACIONREDMETRO": 103,
    "CODIGOESTACION": 201,
    "DENOMINACION": "CASA DE CAMPO",
    "coordinates": [
      -3.76101328108377,
      40.4032079480189
    ]
  },
  {
    "CODIGOCTMESTACIONREDMETRO": 78,
    "CODIGOESTACION": 78,
    "DENOMINACION": "PUEBLO NUEVO",
    "coordinates": [
      -3.64282326413925,
      40.4356928389923
    ]
  },
  {
    "CODIGOCTMESTACIONREDMETRO": 124,
    "CODIGOESTACION": 124,
    "DENOMINACION": "CIUDAD UNIVERSITARIA",
    "coordinates": [
      -3.72678481009787,
      40.4435646769462
    ]
  },
  {
    "CODIGOCTMESTACIONREDMETRO": 122,
    "CODIGOESTACION": 146,
    "DENOMINACION": "GUZMAN EL BUENO",
    "coordinates": [
      -3.71229364452619,
      40.4463288969386
    ]
  },
  {
    "CODIGOCTMESTACIONREDMETRO": 176,
    "CODIGOESTACION": 176,
    "DENOMINACION": "VINATEROS",
    "coordinates": [
      -3.65273420710476,
      40.4102399277996
    ]
  },
  {
    "CODIGOCTMESTACIONREDMETRO": 177,
    "CODIGOESTACION": 177,
    "DENOMINACION": "ARTILLEROS",
    "coordinates": [
      -3.64181233777473,
      40.4052238336675
    ]
  },
  {
    "CODIGOCTMESTACIONREDMETRO": 20,
    "CODIGOESTACION": 20,
    "DENOMINACION": "NUEVA NUMANCIA",
    "coordinates": [
      -3.66414170148567,
      40.3955381621572
    ]
  },
  {
    "CODIGOCTMESTACIONREDMETRO": 181,
    "CODIGOESTACION": 181,
    "DENOMINACION": "SAN CIPRIANO",
    "coordinates": [
      -3.6023940495699,
      40.4038117574594
    ]
  },
  {
    "CODIGOCTMESTACIONREDMETRO": 252,
    "CODIGOESTACION": 252,
    "DENOMINACION": "ALAMEDA DE OSUNA",
    "coordinates": [
      -3.58752092904349,
      40.4577886285205
    ]
  },
  {
    "CODIGOCTMESTACIONREDMETRO": 15,
    "CODIGOESTACION": 15,
    "DENOMINACION": "ESTACIÓN DEL ARTE",
    "coordinates": [
      -3.69248727105058,
      40.4088515983755
    ]
  },
  {
    "CODIGOCTMESTACIONREDMETRO": 16,
    "CODIGOESTACION": 16,
    "DENOMINACION": "ATOCHA RENFE",
    "coordinates": [
      -3.68937811076585,
      40.4065868145425
    ]
  },
  {
    "CODIGOCTMESTACIONREDMETRO": 36,
    "CODIGOESTACION": 36,
    "DENOMINACION": "OPERA",
    "coordinates": [
      -3.70941860871968,
      40.4180929194931
    ]
  },
  {
    "CODIGOCTMESTACIONREDMETRO": 57,
    "CODIGOESTACION": 57,
    "DENOMINACION": "ALONSO MARTINEZ",
    "coordinates": [
      -3.69593869523326,
      40.4277201133387
    ]
  },
  {
    "CODIGOCTMESTACIONREDMETRO": 3,
    "CODIGOESTACION": 3,
    "DENOMINACION": "TETUAN",
    "coordinates": [
      -3.69824989397233,
      40.4605518826648
    ]
  },
  {
    "CODIGOCTMESTACIONREDMETRO": 293,
    "CODIGOESTACION": 293,
    "DENOMINACION": "LA GAVIA",
    "coordinates": [
      -3.61346348307526,
      40.3701916631975
    ]
  },
  {
    "CODIGOCTMESTACIONREDMETRO": 30,
    "CODIGOESTACION": 30,
    "DENOMINACION": "GOYA",
    "coordinates": [
      -3.67591017618596,
      40.4245483896706
    ]
  },
  {
    "CODIGOCTMESTACIONREDMETRO": 31,
    "CODIGOESTACION": 31,
    "DENOMINACION": "PRINCIPE DE VERGARA",
    "coordinates": [
      -3.68012268104369,
      40.4229448617607
    ]
  },
  {
    "CODIGOCTMESTACIONREDMETRO": 32,
    "CODIGOESTACION": 32,
    "DENOMINACION": "RETIRO",
    "coordinates": [
      -3.68624471917784,
      40.4203067175233
    ]
  },
  {
    "CODIGOCTMESTACIONREDMETRO": 37,
    "CODIGOESTACION": 37,
    "DENOMINACION": "SANTO DOMINGO",
    "coordinates": [
      -3.70795527665699,
      40.4213154081332
    ]
  },
  {
    "CODIGOCTMESTACIONREDMETRO": 39,
    "CODIGOESTACION": 39,
    "DENOMINACION": "SAN BERNARDO",
    "coordinates": [
      -3.70556993325102,
      40.4300127626608
    ]
  },
  {
    "CODIGOCTMESTACIONREDMETRO": 294,
    "CODIGOESTACION": 294,
    "DENOMINACION": "LAS SUERTES",
    "coordinates": [
      -3.59953268972882,
      40.3632280247659
    ]
  },
  {
    "CODIGOCTMESTACIONREDMETRO": 295,
    "CODIGOESTACION": 295,
    "DENOMINACION": "VALDECARROS",
    "coordinates": [
      -3.59316035499877,
      40.3600681331852
    ]
  },
  {
    "CODIGOCTMESTACIONREDMETRO": 8,
    "CODIGOESTACION": 8,
    "DENOMINACION": "IGLESIA",
    "coordinates": [
      -3.69897999234847,
      40.4349234782849
    ]
  },
  {
    "CODIGOCTMESTACIONREDMETRO": 11,
    "CODIGOESTACION": 11,
    "DENOMINACION": "GRAN VIA",
    "coordinates": [
      -3.70180415406271,
      40.4200082795095
    ]
  },
  {
    "CODIGOCTMESTACIONREDMETRO": 262,
    "CODIGOESTACION": 262,
    "DENOMINACION": "BAMBU",
    "coordinates": [
      -3.67636744147116,
      40.4768153611651
    ]
  },
  {
    "CODIGOCTMESTACIONREDMETRO": 127,
    "CODIGOESTACION": 127,
    "DENOMINACION": "PRINCIPE PIO",
    "coordinates": [
      -3.72032355914226,
      40.4210688443836
    ]
  },
  {
    "CODIGOCTMESTACIONREDMETRO": 127,
    "CODIGOESTACION": 198,
    "DENOMINACION": "PRINCIPE PIO",
    "coordinates": [
      -3.7203262700195,
      40.421030690465
    ]
  },
  {
    "CODIGOCTMESTACIONREDMETRO": 127,
    "CODIGOESTACION": 238,
    "DENOMINACION": "PRINCIPE PIO",
    "coordinates": [
      -3.72032588866299,
      40.4209949378
    ]
  },
  {
    "CODIGOCTMESTACIONREDMETRO": 191,
    "CODIGOESTACION": 191,
    "DENOMINACION": "CUZCO",
    "coordinates": [
      -3.6898507512138,
      40.4584214192787
    ]
  },
  {
    "CODIGOCTMESTACIONREDMETRO": 192,
    "CODIGOESTACION": 192,
    "DENOMINACION": "SANTIAGO BERNABEU",
    "coordinates": [
      -3.69037934673485,
      40.4515891795258
    ]
  },
  {
    "CODIGOCTMESTACIONREDMETRO": 205,
    "CODIGOESTACION": 205,
    "DENOMINACION": "PUERTA DEL SUR",
    "coordinates": [
      -3.81211073504745,
      40.3452428742768
    ]
  },
  {
    "CODIGOCTMESTACIONREDMETRO": 204,
    "CODIGOESTACION": 204,
    "DENOMINACION": "JOAQUIN VILUMBRALES",
    "coordinates": [
      -3.80720128436728,
      40.349848097734
    ]
  },
  {
    "CODIGOCTMESTACIONREDMETRO": 207,
    "CODIGOESTACION": 207,
    "DENOMINACION": "ABRANTES",
    "coordinates": [
      -3.72790024912171,
      40.3808336147312
    ]
  },
  {
    "CODIGOCTMESTACIONREDMETRO": 21,
    "CODIGOESTACION": 21,
    "DENOMINACION": "PORTAZGO",
    "coordinates": [
      -3.65868242534443,
      40.392664108961
    ]
  },
  {
    "CODIGOCTMESTACIONREDMETRO": 133,
    "CODIGOESTACION": 133,
    "DENOMINACION": "SAN BLAS",
    "coordinates": [
      -3.61546907625776,
      40.4279919067674
    ]
  },
  {
    "CODIGOCTMESTACIONREDMETRO": 134,
    "CODIGOESTACION": 134,
    "DENOMINACION": "SIMANCAS",
    "coordinates": [
      -3.62572167294121,
      40.4279923730252
    ]
  },
  {
    "CODIGOCTMESTACIONREDMETRO": 263,
    "CODIGOESTACION": 263,
    "DENOMINACION": "PINAR DE CHAMARTIN",
    "coordinates": [
      -3.66680448144828,
      40.480139978151
    ]
  },
  {
    "CODIGOCTMESTACIONREDMETRO": 263,
    "CODIGOESTACION": 266,
    "DENOMINACION": "PINAR DE CHAMARTIN",
    "coordinates": [
      -3.66676106753469,
      40.4801384844796
    ]
  },
  {
    "CODIGOCTMESTACIONREDMETRO": 36,
    "CODIGOESTACION": 89,
    "DENOMINACION": "OPERA",
    "coordinates": [
      -3.70934960270523,
      40.4180933419941
    ]
  },
  {
    "CODIGOCTMESTACIONREDMETRO": 36,
    "CODIGOESTACION": 237,
    "DENOMINACION": "OPERA",
    "coordinates": [
      -3.70928059668931,
      40.4180937644539
    ]
  },
  {
    "CODIGOCTMESTACIONREDMETRO": 108,
    "CODIGOESTACION": 206,
    "DENOMINACION": "PLAZA ELIPTICA",
    "coordinates": [
      -3.71825209360675,
      40.3846007903821
    ]
  },
  {
    "CODIGOCTMESTACIONREDMETRO": 64,
    "CODIGOESTACION": 118,
    "DENOMINACION": "AVENIDA DE AMERICA",
    "coordinates": [
      -3.67658343172522,
      40.4380352878505
    ]
  },
  {
    "CODIGOCTMESTACIONREDMETRO": 64,
    "CODIGOESTACION": 141,
    "DENOMINACION": "AVENIDA DE AMERICA",
    "coordinates": [
      -3.67652727951879,
      40.4380356155743
    ]
  },
  {
    "CODIGOCTMESTACIONREDMETRO": 64,
    "CODIGOESTACION": 170,
    "DENOMINACION": "AVENIDA DE AMERICA",
    "coordinates": [
      -3.67647115240005,
      40.4380383287119
    ]
  },
  {
    "CODIGOCTMESTACIONREDMETRO": 29,
    "CODIGOESTACION": 29,
    "DENOMINACION": "MANUEL BECERRA",
    "coordinates": [
      -3.66925820304973,
      40.4279041738074
    ]
  },
  {
    "CODIGOCTMESTACIONREDMETRO": 6,
    "CODIGOESTACION": 6,
    "DENOMINACION": "CUATRO CAMINOS",
    "coordinates": [
      -3.70397477197826,
      40.446973952783
    ]
  },
  {
    "CODIGOCTMESTACIONREDMETRO": 6,
    "CODIGOESTACION": 42,
    "DENOMINACION": "CUATRO CAMINOS",
    "coordinates": [
      -3.70392173504299,
      40.4469742748596
    ]
  },
  {
    "CODIGOCTMESTACIONREDMETRO": 202,
    "CODIGOESTACION": 202,
    "DENOMINACION": "COLONIA JARDIN",
    "coordinates": [
      -3.77461625619616,
      40.3969754264342
    ]
  },
  {
    "CODIGOCTMESTACIONREDMETRO": 212,
    "CODIGOESTACION": 212,
    "DENOMINACION": "PARQUE OESTE",
    "coordinates": [
      -3.84933861659997,
      40.3458943804137
    ]
  },
  {
    "CODIGOCTMESTACIONREDMETRO": 213,
    "CODIGOESTACION": 213,
    "DENOMINACION": "UNIVERSIDAD REY JUAN CARLOS",
    "coordinates": [
      -3.87217960642448,
      40.3351229765986
    ]
  },
  {
    "CODIGOCTMESTACIONREDMETRO": 215,
    "CODIGOESTACION": 215,
    "DENOMINACION": "PRADILLO",
    "coordinates": [
      -3.86488940297031,
      40.3216769647447
    ]
  },
  {
    "CODIGOCTMESTACIONREDMETRO": 216,
    "CODIGOESTACION": 216,
    "DENOMINACION": "HOSPITAL DE MOSTOLES",
    "coordinates": [
      -3.87471247771921,
      40.3165242816456
    ]
  },
  {
    "CODIGOCTMESTACIONREDMETRO": 224,
    "CODIGOESTACION": 224,
    "DENOMINACION": "CONSERVATORIO",
    "coordinates": [
      -3.74576104044338,
      40.2932438463166
    ]
  },
  {
    "CODIGOCTMESTACIONREDMETRO": 218,
    "CODIGOESTACION": 218,
    "DENOMINACION": "LORANCA",
    "coordinates": [
      -3.83768345712019,
      40.2968126640553
    ]
  },
  {
    "CODIGOCTMESTACIONREDMETRO": 219,
    "CODIGOESTACION": 219,
    "DENOMINACION": "HOSPITAL DE FUENLABRADA",
    "coordinates": [
      -3.81641680868562,
      40.2857554858776
    ]
  },
  {
    "CODIGOCTMESTACIONREDMETRO": 220,
    "CODIGOESTACION": 220,
    "DENOMINACION": "PARQUE EUROPA",
    "coordinates": [
      -3.80632299228354,
      40.2851756964955
    ]
  },
  {
    "CODIGOCTMESTACIONREDMETRO": 41,
    "CODIGOESTACION": 41,
    "DENOMINACION": "CANAL",
    "coordinates": [
      -3.70433457335431,
      40.438412998
    ]
  },
  {
    "CODIGOCTMESTACIONREDMETRO": 40,
    "CODIGOESTACION": 40,
    "DENOMINACION": "QUEVEDO",
    "coordinates": [
      -3.70433286125026,
      40.4332173151576
    ]
  },
  {
    "CODIGOCTMESTACIONREDMETRO": 223,
    "CODIGOESTACION": 223,
    "DENOMINACION": "ARROYO CULEBRO",
    "coordinates": [
      -3.75682335666738,
      40.2887417691494
    ]
  },
  {
    "CODIGOCTMESTACIONREDMETRO": 225,
    "CODIGOESTACION": 225,
    "DENOMINACION": "ALONSO DE MENDOZA",
    "coordinates": [
      -3.73663697171246,
      40.3008139619265
    ]
  },
  {
    "CODIGOCTMESTACIONREDMETRO": 229,
    "CODIGOESTACION": 229,
    "DENOMINACION": "LOS ESPARTALES",
    "coordinates": [
      -3.7181978645244,
      40.3242270149373
    ]
  },
  {
    "CODIGOCTMESTACIONREDMETRO": 23,
    "CODIGOESTACION": 23,
    "DENOMINACION": "ALTO DEL ARENAL",
    "coordinates": [
      -3.64521654904283,
      40.3897710121487
    ]
  },
  {
    "CODIGOCTMESTACIONREDMETRO": 232,
    "CODIGOESTACION": 232,
    "DENOMINACION": "JULIAN BESTEIRO",
    "coordinates": [
      -3.75265895099191,
      40.3347491078306
    ]
  },
  {
    "CODIGOCTMESTACIONREDMETRO": 44,
    "CODIGOESTACION": 44,
    "DENOMINACION": "DELICIAS",
    "coordinates": [
      -3.69419961603634,
      40.3999047785544
    ]
  },
  {
    "CODIGOCTMESTACIONREDMETRO": 236,
    "CODIGOESTACION": 236,
    "DENOMINACION": "SAN NICASIO",
    "coordinates": [
      -3.77587362530074,
      40.336163147896
    ]
  },
  {
    "CODIGOCTMESTACIONREDMETRO": 24,
    "CODIGOESTACION": 24,
    "DENOMINACION": "MIGUEL HERNANDEZ",
    "coordinates": [
      -3.63950990063064,
      40.3873157470567
    ]
  },
  {
    "CODIGOCTMESTACIONREDMETRO": 254,
    "CODIGOESTACION": 254,
    "DENOMINACION": "SAN FRANCISCO",
    "coordinates": [
      -3.73910292919002,
      40.3735988410558
    ]
  },
  {
    "CODIGOCTMESTACIONREDMETRO": 257,
    "CODIGOESTACION": 257,
    "DENOMINACION": "AVIACION ESPAÑOLA",
    "coordinates": [
      -3.78392294643938,
      40.3836394376112
    ]
  },
  {
    "CODIGOCTMESTACIONREDMETRO": 258,
    "CODIGOESTACION": 258,
    "DENOMINACION": "PINAR DEL REY",
    "coordinates": [
      -3.64866836052012,
      40.4680013620738
    ]
  },
  {
    "CODIGOCTMESTACIONREDMETRO": 260,
    "CODIGOESTACION": 260,
    "DENOMINACION": "LA ELIPA",
    "coordinates": [
      -3.65051891390286,
      40.4266172349772
    ]
  },
  {
    "CODIGOCTMESTACIONREDMETRO": 286,
    "CODIGOESTACION": 286,
    "DENOMINACION": "ESTADIO METROPOLITANO",
    "coordinates": [
      -3.60015365421252,
      40.4333934840999
    ]
  },
  {
    "CODIGOCTMESTACIONREDMETRO": 184,
    "CODIGOESTACION": 184,
    "DENOMINACION": "RIVAS VACIAMADRID",
    "coordinates": [
      -3.52059752095372,
      40.3283709218929
    ]
  },
  {
    "CODIGOCTMESTACIONREDMETRO": 22,
    "CODIGOESTACION": 22,
    "DENOMINACION": "BUENOS AIRES",
    "coordinates": [
      -3.6539061229837,
      40.3915628772158
    ]
  },
  {
    "CODIGOCTMESTACIONREDMETRO": 178,
    "CODIGOESTACION": 178,
    "DENOMINACION": "PAVONES",
    "coordinates": [
      -3.63512255629341,
      40.4005115495727
    ]
  },
  {
    "CODIGOCTMESTACIONREDMETRO": 273,
    "CODIGOESTACION": 273,
    "DENOMINACION": "VILLAVERDE ALTO",
    "coordinates": [
      -3.71199027086867,
      40.3412286568915
    ]
  },
  {
    "CODIGOCTMESTACIONREDMETRO": 28,
    "CODIGOESTACION": 28,
    "DENOMINACION": "VENTAS",
    "coordinates": [
      -3.66365886645755,
      40.4308844988134
    ]
  },
  {
    "CODIGOCTMESTACIONREDMETRO": 217,
    "CODIGOESTACION": 217,
    "DENOMINACION": "MANUELA MALASAÑA",
    "coordinates": [
      -3.86402119722615,
      40.3090300558365
    ]
  },
  {
    "CODIGOCTMESTACIONREDMETRO": 1,
    "CODIGOESTACION": 1,
    "DENOMINACION": "PLAZA DE CASTILLA",
    "coordinates": [
      -3.68916958703584,
      40.4668960373106
    ]
  },
  {
    "CODIGOCTMESTACIONREDMETRO": 1,
    "CODIGOESTACION": 164,
    "DENOMINACION": "PLAZA DE CASTILLA",
    "coordinates": [
      -3.68912665320244,
      40.466896292393
    ]
  },
  {
    "CODIGOCTMESTACIONREDMETRO": 271,
    "CODIGOESTACION": 271,
    "DENOMINACION": "VILLAVERDE BAJO CRUCE",
    "coordinates": [
      -3.69264894181344,
      40.3508947639615
    ]
  },
  {
    "CODIGOCTMESTACIONREDMETRO": 261,
    "CODIGOESTACION": 189,
    "DENOMINACION": "CHAMARTIN",
    "coordinates": [
      -3.68259088054998,
      40.4721031246127
    ]
  },
  {
    "CODIGOCTMESTACIONREDMETRO": 188,
    "CODIGOESTACION": 188,
    "DENOMINACION": "BEGOÑA",
    "coordinates": [
      -3.685849695579,
      40.4804129321054
    ]
  },
  {
    "CODIGOCTMESTACIONREDMETRO": 280,
    "CODIGOESTACION": 280,
    "DENOMINACION": "MARQUES DE LA VALDAVIA",
    "coordinates": [
      -3.63738494117669,
      40.5410235621335
    ]
  },
  {
    "CODIGOCTMESTACIONREDMETRO": 282,
    "CODIGOESTACION": 282,
    "DENOMINACION": "BAUNATAL",
    "coordinates": [
      -3.63512602371204,
      40.5544232071442
    ]
  },
  {
    "CODIGOCTMESTACIONREDMETRO": 326,
    "CODIGOESTACION": 326,
    "DENOMINACION": "MIRASIERRA",
    "coordinates": [
      -3.71634448229921,
      40.4910977848675
    ]
  },
  {
    "CODIGOCTMESTACIONREDMETRO": 114,
    "CODIGOESTACION": 174,
    "DENOMINACION": "SAINZ DE BARANDA",
    "coordinates": [
      -3.66951374370264,
      40.4150284968071
    ]
  },
  {
    "CODIGOCTMESTACIONREDMETRO": 114,
    "CODIGOESTACION": 114,
    "DENOMINACION": "SAINZ DE BARANDA",
    "coordinates": [
      -3.66951413941805,
      40.4150685388666
    ]
  },
  {
    "CODIGOCTMESTACIONREDMETRO": 136,
    "CODIGOESTACION": 136,
    "DENOMINACION": "ASCAO",
    "coordinates": [
      -3.64105571498423,
      40.4302055301581
    ]
  },
  {
    "CODIGOCTMESTACIONREDMETRO": 93,
    "CODIGOESTACION": 93,
    "DENOMINACION": "PIRAMIDES",
    "coordinates": [
      -3.71137712281232,
      40.4025981654589
    ]
  },
  {
    "CODIGOCTMESTACIONREDMETRO": 235,
    "CODIGOESTACION": 235,
    "DENOMINACION": "LEGANES CENTRAL",
    "coordinates": [
      -3.77153699668843,
      40.3289852309455
    ]
  },
  {
    "CODIGOCTMESTACIONREDMETRO": 211,
    "CODIGOESTACION": 211,
    "DENOMINACION": "ALCORCON CENTRAL",
    "coordinates": [
      -3.83177862063198,
      40.3500843402794
    ]
  },
  {
    "CODIGOCTMESTACIONREDMETRO": 228,
    "CODIGOESTACION": 228,
    "DENOMINACION": "EL CASAR",
    "coordinates": [
      -3.70985404230006,
      40.3186231578854
    ]
  },
  {
    "CODIGOCTMESTACIONREDMETRO": 30,
    "CODIGOESTACION": 61,
    "DENOMINACION": "GOYA",
    "coordinates": [
      -3.67684614290745,
      40.424805404818
    ]
  },
  {
    "CODIGOCTMESTACIONREDMETRO": 31,
    "CODIGOESTACION": 172,
    "DENOMINACION": "PRINCIPE DE VERGARA",
    "coordinates": [
      -3.68023986899957,
      40.424175954821
    ]
  },
  {
    "CODIGOCTMESTACIONREDMETRO": 142,
    "CODIGOESTACION": 194,
    "DENOMINACION": "GREGORIO MARAÑON",
    "coordinates": [
      -3.69126760284298,
      40.4375340733208
    ]
  },
  {
    "CODIGOCTMESTACIONREDMETRO": 259,
    "CODIGOESTACION": 259,
    "DENOMINACION": "ARGANZUELA-PLANETARIO",
    "coordinates": [
      -3.68864034744709,
      40.3931027049207
    ]
  },
  {
    "CODIGOCTMESTACIONREDMETRO": 255,
    "CODIGOESTACION": 255,
    "DENOMINACION": "CARABANCHEL ALTO",
    "coordinates": [
      -3.75190634426727,
      40.3720024216854
    ]
  },
  {
    "CODIGOCTMESTACIONREDMETRO": 324,
    "CODIGOESTACION": 324,
    "DENOMINACION": "AVENIDA DE GUADALAJARA",
    "coordinates": [
      -3.61206460968115,
      40.4223935838227
    ]
  },
  {
    "CODIGOCTMESTACIONREDMETRO": 325,
    "CODIGOESTACION": 325,
    "DENOMINACION": "LAS ROSAS",
    "coordinates": [
      -3.60330559556744,
      40.4237484310442
    ]
  },
  {
    "CODIGOCTMESTACIONREDMETRO": 256,
    "CODIGOESTACION": 256,
    "DENOMINACION": "LA PESETA",
    "coordinates": [
      -3.75690271058812,
      40.3642240118116
    ]
  },
  {
    "CODIGOCTMESTACIONREDMETRO": 130,
    "CODIGOESTACION": 130,
    "DENOMINACION": "LUCERO",
    "coordinates": [
      -3.74533695945151,
      40.4050996506522
    ]
  },
  {
    "CODIGOCTMESTACIONREDMETRO": 152,
    "CODIGOESTACION": 152,
    "DENOMINACION": "LACOMA",
    "coordinates": [
      -3.72304554155022,
      40.4850150260736
    ]
  },
  {
    "CODIGOCTMESTACIONREDMETRO": 151,
    "CODIGOESTACION": 151,
    "DENOMINACION": "AVDA. DE LA ILUSTRACION",
    "coordinates": [
      -3.71839825221866,
      40.4801026115457
    ]
  },
  {
    "CODIGOCTMESTACIONREDMETRO": 148,
    "CODIGOESTACION": 148,
    "DENOMINACION": "VALDEZARZA",
    "coordinates": [
      -3.71597212685142,
      40.4648235328361
    ]
  },
  {
    "CODIGOCTMESTACIONREDMETRO": 156,
    "CODIGOESTACION": 156,
    "DENOMINACION": "COLOMBIA",
    "coordinates": [
      -3.67682428677482,
      40.4563390683252
    ]
  },
  {
    "CODIGOCTMESTACIONREDMETRO": 63,
    "CODIGOESTACION": 82,
    "DENOMINACION": "DIEGO DE LEON",
    "coordinates": [
      -3.67426171253058,
      40.4323531942728
    ]
  },
  {
    "CODIGOCTMESTACIONREDMETRO": 53,
    "CODIGOESTACION": 53,
    "DENOMINACION": "MONCLOA",
    "coordinates": [
      -3.7194506192407,
      40.4350235151956
    ]
  },
  {
    "CODIGOCTMESTACIONREDMETRO": 265,
    "CODIGOESTACION": 265,
    "DENOMINACION": "MANOTERAS",
    "coordinates": [
      -3.66289547589112,
      40.4768742266936
    ]
  },
  {
    "CODIGOCTMESTACIONREDMETRO": 27,
    "CODIGOESTACION": 27,
    "DENOMINACION": "CONGOSTO",
    "coordinates": [
      -3.61884135012454,
      40.3723823703667
    ]
  },
  {
    "CODIGOCTMESTACIONREDMETRO": 160,
    "CODIGOESTACION": 160,
    "DENOMINACION": "BARAJAS",
    "coordinates": [
      -3.58252790979637,
      40.4757741638309
    ]
  },
  {
    "CODIGOCTMESTACIONREDMETRO": 18,
    "CODIGOESTACION": 112,
    "DENOMINACION": "PACIFICO",
    "coordinates": [
      -3.67385603841189,
      40.402071738556
    ]
  },
  {
    "CODIGOCTMESTACIONREDMETRO": 234,
    "CODIGOESTACION": 234,
    "DENOMINACION": "HOSPITAL SEVERO OCHOA",
    "coordinates": [
      -3.76797304730462,
      40.3217702700883
    ]
  },
  {
    "CODIGOCTMESTACIONREDMETRO": 205,
    "CODIGOESTACION": 209,
    "DENOMINACION": "PUERTA DEL SUR",
    "coordinates": [
      -3.81248917974568,
      40.3454308655006
    ]
  },
  {
    "CODIGOCTMESTACIONREDMETRO": 283,
    "CODIGOESTACION": 283,
    "DENOMINACION": "REYES CATOLICOS",
    "coordinates": [
      -3.62339941044202,
      40.5503748336655
    ]
  },
  {
    "CODIGOCTMESTACIONREDMETRO": 281,
    "CODIGOESTACION": 281,
    "DENOMINACION": "MANUEL DE FALLA",
    "coordinates": [
      -3.64687944950569,
      40.5504799808972
    ]
  },
  {
    "CODIGOCTMESTACIONREDMETRO": 278,
    "CODIGOESTACION": 278,
    "DENOMINACION": "LA GRANJA",
    "coordinates": [
      -3.65859208713804,
      40.5275996223624
    ]
  },
  {
    "CODIGOCTMESTACIONREDMETRO": 284,
    "CODIGOESTACION": 284,
    "DENOMINACION": "HOSPITAL INFANTA SOFIA",
    "coordinates": [
      -3.61145473384219,
      40.5597694481961
    ]
  },
  {
    "CODIGOCTMESTACIONREDMETRO": 119,
    "CODIGOESTACION": 119,
    "DENOMINACION": "REPUBLICA ARGENTINA",
    "coordinates": [
      -3.68406186705705,
      40.44379456449
    ]
  },
  {
    "CODIGOCTMESTACIONREDMETRO": 120,
    "CODIGOESTACION": 155,
    "DENOMINACION": "NUEVOS MINISTERIOS",
    "coordinates": [
      -3.69240559234498,
      40.4465526699884
    ]
  },
  {
    "CODIGOCTMESTACIONREDMETRO": 261,
    "CODIGOESTACION": 261,
    "DENOMINACION": "CHAMARTIN",
    "coordinates": [
      -3.6825901094031,
      40.4720268529735
    ]
  },
  {
    "CODIGOCTMESTACIONREDMETRO": 180,
    "CODIGOESTACION": 180,
    "DENOMINACION": "VICALVARO",
    "coordinates": [
      -3.6088588260062,
      40.4042159164034
    ]
  },
  {
    "CODIGOCTMESTACIONREDMETRO": 288,
    "CODIGOESTACION": 288,
    "DENOMINACION": "COSLADA CENTRAL",
    "coordinates": [
      -3.56119234949966,
      40.4237362059777
    ]
  },
  {
    "CODIGOCTMESTACIONREDMETRO": 138,
    "CODIGOESTACION": 138,
    "DENOMINACION": "BARRIO DE LA CONCEPCION",
    "coordinates": [
      -3.65200400129475,
      40.4390993999931
    ]
  },
  {
    "CODIGOCTMESTACIONREDMETRO": 14,
    "CODIGOESTACION": 14,
    "DENOMINACION": "ANTON MARTIN",
    "coordinates": [
      -3.69937296334489,
      40.41246356569
    ]
  },
  {
    "CODIGOCTMESTACIONREDMETRO": 143,
    "CODIGOESTACION": 143,
    "DENOMINACION": "ALONSO CANO",
    "coordinates": [
      -3.69924564323726,
      40.4383753761104
    ]
  },
  {
    "CODIGOCTMESTACIONREDMETRO": 147,
    "CODIGOESTACION": 147,
    "DENOMINACION": "FRANCOS RODRIGUEZ",
    "coordinates": [
      -3.7123866721983,
      40.4564818207783
    ]
  },
  {
    "CODIGOCTMESTACIONREDMETRO": 149,
    "CODIGOESTACION": 149,
    "DENOMINACION": "ANTONIO MACHADO",
    "coordinates": [
      -3.71769485524122,
      40.4702177203907
    ]
  },
  {
    "CODIGOCTMESTACIONREDMETRO": 186,
    "CODIGOESTACION": 186,
    "DENOMINACION": "ARGANDA DEL REY",
    "coordinates": [
      -3.44751896078065,
      40.303669277437
    ]
  },
  {
    "CODIGOCTMESTACIONREDMETRO": 162,
    "CODIGOESTACION": 162,
    "DENOMINACION": "BARRIO DEL PILAR",
    "coordinates": [
      -3.70316450384176,
      40.4768890688056
    ]
  },
  {
    "CODIGOCTMESTACIONREDMETRO": 203,
    "CODIGOESTACION": 203,
    "DENOMINACION": "CUATRO VIENTOS",
    "coordinates": [
      -3.79151519987357,
      40.3777068887697
    ]
  },
  {
    "CODIGOCTMESTACIONREDMETRO": 168,
    "CODIGOESTACION": 168,
    "DENOMINACION": "CONCHA ESPINA",
    "coordinates": [
      -3.67738012287591,
      40.4514484326224
    ]
  },
  {
    "CODIGOCTMESTACIONREDMETRO": 163,
    "CODIGOESTACION": 163,
    "DENOMINACION": "VENTILLA",
    "coordinates": [
      -3.69588332976518,
      40.4694353769873
    ]
  },
  {
    "CODIGOCTMESTACIONREDMETRO": 165,
    "CODIGOESTACION": 165,
    "DENOMINACION": "DUQUE DE PASTRANA",
    "coordinates": [
      -3.6791705524779,
      40.4676258515088
    ]
  },
  {
    "CODIGOCTMESTACIONREDMETRO": 71,
    "CODIGOESTACION": 157,
    "DENOMINACION": "MAR DE CRISTAL",
    "coordinates": [
      -3.63832022322047,
      40.4693837871887
    ]
  },
  {
    "CODIGOCTMESTACIONREDMETRO": 52,
    "CODIGOESTACION": 54,
    "DENOMINACION": "ARGÜELLES",
    "coordinates": [
      -3.71595686972729,
      40.430598358764
    ]
  },
  {
    "CODIGOCTMESTACIONREDMETRO": 296,
    "CODIGOESTACION": 296,
    "DENOMINACION": "HOSPITAL DEL HENARES",
    "coordinates": [
      -3.53453497209821,
      40.4176100182185
    ]
  },
  {
    "CODIGOCTMESTACIONREDMETRO": 52,
    "CODIGOESTACION": 126,
    "DENOMINACION": "ARGÜELLES",
    "coordinates": [
      -3.71595616544418,
      40.4305318396402
    ]
  },
  {
    "CODIGOCTMESTACIONREDMETRO": 49,
    "CODIGOESTACION": 49,
    "DENOMINACION": "CALLAO",
    "coordinates": [
      -3.70566123684341,
      40.4201364950851
    ]
  },
  {
    "CODIGOCTMESTACIONREDMETRO": 139,
    "CODIGOESTACION": 139,
    "DENOMINACION": "PARQUE DE LAS AVENIDAS",
    "coordinates": [
      -3.66297058086922,
      40.4394476023403
    ]
  },
  {
    "CODIGOCTMESTACIONREDMETRO": 86,
    "CODIGOESTACION": 86,
    "DENOMINACION": "CHUECA",
    "coordinates": [
      -3.69761659244378,
      40.4229331780798
    ]
  },
  {
    "CODIGOCTMESTACIONREDMETRO": 10,
    "CODIGOESTACION": 196,
    "DENOMINACION": "TRIBUNAL",
    "coordinates": [
      -3.702077748836,
      40.4259951967804
    ]
  },
  {
    "CODIGOCTMESTACIONREDMETRO": 289,
    "CODIGOESTACION": 289,
    "DENOMINACION": "LA RAMBLA",
    "coordinates": [
      -3.54792383333825,
      40.4251434841391
    ]
  },
  {
    "CODIGOCTMESTACIONREDMETRO": 287,
    "CODIGOESTACION": 287,
    "DENOMINACION": "BARRIO DEL PUERTO",
    "coordinates": [
      -3.56918847026566,
      40.422496870096
    ]
  },
  {
    "CODIGOCTMESTACIONREDMETRO": 290,
    "CODIGOESTACION": 290,
    "DENOMINACION": "SAN FERNANDO",
    "coordinates": [
      -3.53541452255171,
      40.4244122496606
    ]
  },
  {
    "CODIGOCTMESTACIONREDMETRO": 292,
    "CODIGOESTACION": 292,
    "DENOMINACION": "HENARES",
    "coordinates": [
      -3.52717835279042,
      40.4177694852412
    ]
  },
  {
    "CODIGOCTMESTACIONREDMETRO": 169,
    "CODIGOESTACION": 169,
    "DENOMINACION": "CRUZ DEL RAYO",
    "coordinates": [
      -3.67821410967105,
      40.4442658811033
    ]
  },
  {
    "CODIGOCTMESTACIONREDMETRO": 17,
    "CODIGOESTACION": 17,
    "DENOMINACION": "MENENDEZ PELAYO",
    "coordinates": [
      -3.68097941707577,
      40.4044505222636
    ]
  },
  {
    "CODIGOCTMESTACIONREDMETRO": 270,
    "CODIGOESTACION": 270,
    "DENOMINACION": "CIUDAD DE LOS ANGELES",
    "coordinates": [
      -3.69362644417066,
      40.359585428137
    ]
  },
  {
    "CODIGOCTMESTACIONREDMETRO": 272,
    "CODIGOESTACION": 272,
    "DENOMINACION": "SAN CRISTOBAL",
    "coordinates": [
      -3.69318029918632,
      40.3415419360096
    ]
  },
  {
    "CODIGOCTMESTACIONREDMETRO": 39,
    "CODIGOESTACION": 55,
    "DENOMINACION": "SAN BERNARDO",
    "coordinates": [
      -3.70567378858878,
      40.42966246161
    ]
  },
  {
    "CODIGOCTMESTACIONREDMETRO": 9,
    "CODIGOESTACION": 56,
    "DENOMINACION": "BILBAO",
    "coordinates": [
      -3.70113817556514,
      40.428850304442
    ]
  },
  {
    "CODIGOCTMESTACIONREDMETRO": 57,
    "CODIGOESTACION": 85,
    "DENOMINACION": "ALONSO MARTINEZ",
    "coordinates": [
      -3.6950229019467,
      40.4282825813705
    ]
  },
  {
    "CODIGOCTMESTACIONREDMETRO": 46,
    "CODIGOESTACION": 46,
    "DENOMINACION": "EMBAJADORES",
    "coordinates": [
      -3.70268049977228,
      40.4051272711625
    ]
  },
  {
    "CODIGOCTMESTACIONREDMETRO": 53,
    "CODIGOESTACION": 125,
    "DENOMINACION": "MONCLOA",
    "coordinates": [
      -3.71945001068823,
      40.4349663108718
    ]
  },
  {
    "CODIGOCTMESTACIONREDMETRO": 100,
    "CODIGOESTACION": 100,
    "DENOMINACION": "ALUCHE",
    "coordinates": [
      -3.76080381070444,
      40.3856286195639
    ]
  },
  {
    "CODIGOCTMESTACIONREDMETRO": 46,
    "CODIGOESTACION": 92,
    "DENOMINACION": "ACACIAS",
    "coordinates": [
      -3.70664108607519,
      40.4038716437299
    ]
  },
  {
    "CODIGOCTMESTACIONREDMETRO": 43,
    "CODIGOESTACION": 110,
    "DENOMINACION": "LEGAZPI",
    "coordinates": [
      -3.69505136534669,
      40.3911577579403
    ]
  },
  {
    "CODIGOCTMESTACIONREDMETRO": 43,
    "CODIGOESTACION": 43,
    "DENOMINACION": "LEGAZPI",
    "coordinates": [
      -3.69511368759602,
      40.3911549995102
    ]
  },
  {
    "CODIGOCTMESTACIONREDMETRO": 111,
    "CODIGOESTACION": 111,
    "DENOMINACION": "MENDEZ ALVARO",
    "coordinates": [
      -3.67814150708304,
      40.395375599391
    ]
  },
  {
    "CODIGOCTMESTACIONREDMETRO": 96,
    "CODIGOESTACION": 96,
    "DENOMINACION": "OPORTO",
    "coordinates": [
      -3.73132331241503,
      40.3884647630932
    ]
  },
  {
    "CODIGOCTMESTACIONREDMETRO": 96,
    "CODIGOESTACION": 106,
    "DENOMINACION": "OPORTO",
    "coordinates": [
      -3.73126411287804,
      40.3884675194837
    ]
  },
  {
    "CODIGOCTMESTACIONREDMETRO": 59,
    "CODIGOESTACION": 59,
    "DENOMINACION": "SERRANO",
    "coordinates": [
      -3.68663043638334,
      40.425432159419
    ]
  },
  {
    "CODIGOCTMESTACIONREDMETRO": 63,
    "CODIGOESTACION": 63,
    "DENOMINACION": "DIEGO DE LEON",
    "coordinates": [
      -3.67495273007717,
      40.4346794643927
    ]
  },
  {
    "CODIGOCTMESTACIONREDMETRO": 275,
    "CODIGOESTACION": 275,
    "DENOMINACION": "MONTECARMELO",
    "coordinates": [
      -3.69575069505638,
      40.505252159111
    ]
  },
  {
    "CODIGOCTMESTACIONREDMETRO": 66,
    "CODIGOESTACION": 66,
    "DENOMINACION": "ALFONSO XIII",
    "coordinates": [
      -3.66790615299561,
      40.448248388161
    ]
  },
  {
    "CODIGOCTMESTACIONREDMETRO": 67,
    "CODIGOESTACION": 67,
    "DENOMINACION": "AVENIDA DE LA PAZ",
    "coordinates": [
      -3.66118199968261,
      40.4535426348993
    ]
  },
  {
    "CODIGOCTMESTACIONREDMETRO": 69,
    "CODIGOESTACION": 69,
    "DENOMINACION": "ESPERANZA",
    "coordinates": [
      -3.64581718003963,
      40.4594472971918
    ]
  },
  {
    "CODIGOCTMESTACIONREDMETRO": 71,
    "CODIGOESTACION": 71,
    "DENOMINACION": "MAR DE CRISTAL",
    "coordinates": [
      -3.63832267340299,
      40.4694260338848
    ]
  },
  {
    "CODIGOCTMESTACIONREDMETRO": 72,
    "CODIGOESTACION": 72,
    "DENOMINACION": "SAN LORENZO",
    "coordinates": [
      -3.6395772765646,
      40.4744707395869
    ]
  },
  {
    "CODIGOCTMESTACIONREDMETRO": 74,
    "CODIGOESTACION": 74,
    "DENOMINACION": "CANILLEJAS",
    "coordinates": [
      -3.60816032312032,
      40.4494208443657
    ]
  },
  {
    "CODIGOCTMESTACIONREDMETRO": 75,
    "CODIGOESTACION": 75,
    "DENOMINACION": "TORRE ARIAS",
    "coordinates": [
      -3.61699470593882,
      40.4437432964146
    ]
  },
  {
    "CODIGOCTMESTACIONREDMETRO": 76,
    "CODIGOESTACION": 76,
    "DENOMINACION": "SUANZES",
    "coordinates": [
      -3.62683974417714,
      40.4408512430777
    ]
  },
  {
    "CODIGOCTMESTACIONREDMETRO": 79,
    "CODIGOESTACION": 79,
    "DENOMINACION": "QUINTANA",
    "coordinates": [
      -3.64736224209832,
      40.4335849416495
    ]
  },
  {
    "CODIGOCTMESTACIONREDMETRO": 80,
    "CODIGOESTACION": 80,
    "DENOMINACION": "EL CARMEN",
    "coordinates": [
      -3.65757254725966,
      40.4318932920946
    ]
  },
  {
    "CODIGOCTMESTACIONREDMETRO": 83,
    "CODIGOESTACION": 83,
    "DENOMINACION": "NUÑEZ DE BALBOA",
    "coordinates": [
      -3.6825799144836,
      40.4327806080438
    ]
  },
  {
    "CODIGOCTMESTACIONREDMETRO": 84,
    "CODIGOESTACION": 84,
    "DENOMINACION": "RUBEN DARIO",
    "coordinates": [
      -3.68954159857549,
      40.4331579372096
    ]
  },
  {
    "CODIGOCTMESTACIONREDMETRO": 9,
    "CODIGOESTACION": 9,
    "DENOMINACION": "BILBAO",
    "coordinates": [
      -3.70218206577842,
      40.4290560241036
    ]
  },
  {
    "CODIGOCTMESTACIONREDMETRO": 94,
    "CODIGOESTACION": 94,
    "DENOMINACION": "MARQUES DE VADILLO",
    "coordinates": [
      -3.71596007651405,
      40.3973562903245
    ]
  },
  {
    "CODIGOCTMESTACIONREDMETRO": 95,
    "CODIGOESTACION": 95,
    "DENOMINACION": "URGEL",
    "coordinates": [
      -3.72360482429366,
      40.3933517684562
    ]
  },
  {
    "CODIGOCTMESTACIONREDMETRO": 97,
    "CODIGOESTACION": 97,
    "DENOMINACION": "VISTA ALEGRE",
    "coordinates": [
      -3.73982455000658,
      40.3888470257572
    ]
  }
]